[
  {
    "name": "Aomori Gyosai Center (Furukawa Fish Market)",
    "region": "Tohoku",
    "city": "Aomori",
    "prefecture": "Aomori-ken",
    "neighborhood": "Furukawa",
    "category": "food",
    "coordinates": {
      "lat": 40.8275,
      "lng": 140.735
    },
    "short_description": "Famous for 'Nokke-don', where you buy tickets to build your own custom seafood bowl from various stalls.",
    "estimated_duration": "1 hour",
    "rating": 4.4,
    "review_count": 4500,
    "min_budget": "¥2000"
  },
  {
    "name": "Aji no Sapporo Onishi",
    "region": "Tohoku",
    "city": "Aomori",
    "prefecture": "Aomori-ken",
    "neighborhood": "Furukawa",
    "category": "food",
    "coordinates": {
      "lat": 40.8268,
      "lng": 140.7345
    },
    "short_description": "The originator of 'Miso Curry Milk Ramen', a unique Aomori soul food that is surprisingly creamy and spicy.",
    "estimated_duration": "1 hour",
    "rating": 4.1,
    "review_count": 3200,
    "min_budget": "¥1000"
  },
  {
    "name": "Osanai Shokudo",
    "region": "Tohoku",
    "city": "Aomori",
    "prefecture": "Aomori-ken",
    "neighborhood": "Shinmachi",
    "category": "food",
    "coordinates": {
      "lat": 40.8285,
      "lng": 140.7338
    },
    "short_description": "Extremely popular diner famous for its scallop dishes, especially the Hotate Miso-kayaki (grilled scallop with miso).",
    "estimated_duration": "1 hour",
    "rating": 4.2,
    "review_count": 2800,
    "min_budget": "¥1500"
  },
  {
    "name": "Nebuta no Kuni Takaju",
    "region": "Tohoku",
    "city": "Aomori",
    "prefecture": "Aomori-ken",
    "neighborhood": "Honcho",
    "category": "food",
    "coordinates": {
      "lat": 40.8272,
      "lng": 140.742
    },
    "short_description": "Themed izakaya offering live Tsugaru Shamisen performances and local dishes in a Nebuta festival atmosphere.",
    "estimated_duration": "2 hours",
    "rating": 4.0,
    "review_count": 1200,
    "min_budget": "¥5000"
  },
  {
    "name": "Chuka Soba Hirakoya",
    "region": "Tohoku",
    "city": "Aomori",
    "prefecture": "Aomori-ken",
    "neighborhood": "Shinjo",
    "category": "food",
    "coordinates": {
      "lat": 40.8085,
      "lng": 140.71
    },
    "short_description": "Renowned for its intense 'Niboshi' (dried sardine) ramen, offering different levels of fish broth intensity.",
    "estimated_duration": "1 hour",
    "rating": 4.3,
    "review_count": 1500,
    "min_budget": "¥900"
  },
  {
    "name": "Hotate Goya",
    "region": "Tohoku",
    "city": "Aomori",
    "prefecture": "Aomori-ken",
    "neighborhood": "Shinmachi",
    "category": "food",
    "coordinates": {
      "lat": 40.829,
      "lng": 140.7342
    },
    "short_description": "A fun restaurant where you can fish for your own scallops and have them grilled, fried, or as sashimi.",
    "estimated_duration": "1 hour",
    "rating": 4.0,
    "review_count": 1800,
    "min_budget": "¥1500"
  },
  {
    "name": "A-FACTORY",
    "region": "Tohoku",
    "city": "Aomori",
    "prefecture": "Aomori-ken",
    "neighborhood": "Waterfront",
    "category": "food",
    "coordinates": {
      "lat": 40.8305,
      "lng": 140.7355
    },
    "short_description": "Marketplace and cidery selling Aomori apple cider, gelato, and local souvenirs right by the station.",
    "estimated_duration": "1 hour",
    "rating": 4.1,
    "review_count": 2500,
    "min_budget": "¥1000"
  },
  {
    "name": "Tsugaru Joppari Isariya Sakaba",
    "region": "Tohoku",
    "city": "Aomori",
    "prefecture": "Aomori-ken",
    "neighborhood": "Honcho",
    "category": "food",
    "coordinates": {
      "lat": 40.8265,
      "lng": 140.7415
    },
    "short_description": "Atmospheric izakaya serving Aomori specialties like Igamenchi and fresh seafood with shamisen music.",
    "estimated_duration": "2 hours",
    "rating": 4.1,
    "review_count": 800,
    "min_budget": "¥4000"
  },
  {
    "name": "Nagao Chuka Soba Western Branch",
    "region": "Tohoku",
    "city": "Aomori",
    "prefecture": "Aomori-ken",
    "neighborhood": "Shinjo",
    "category": "food",
    "coordinates": {
      "lat": 40.82,
      "lng": 140.72
    },
    "short_description": "Famous for its variety of Niboshi ramen styles, from light and clear to thick and muddy.",
    "estimated_duration": "1 hour",
    "rating": 4.0,
    "review_count": 900,
    "min_budget": "¥900"
  },
  {
    "name": "Aji no Sapporo Asari",
    "region": "Tohoku",
    "city": "Aomori",
    "prefecture": "Aomori-ken",
    "neighborhood": "Shinmachi",
    "category": "food",
    "coordinates": {
      "lat": 40.826,
      "lng": 140.736
    },
    "short_description": "A popular spot for Miso Curry Milk Ramen, known for a slightly sweeter and milder soup than Onishi.",
    "estimated_duration": "1 hour",
    "rating": 4.2,
    "review_count": 1100,
    "min_budget": "¥1000"
  },
  {
    "name": "Sweets Factory pampam",
    "region": "Tohoku",
    "city": "Aomori",
    "prefecture": "Aomori-ken",
    "neighborhood": "Waterfront (ASPAM)",
    "category": "food",
    "coordinates": {
      "lat": 40.831,
      "lng": 140.7405
    },
    "short_description": "Located in the ASPAM building, famous for its freshly baked apple pies.",
    "estimated_duration": "30 mins",
    "rating": 4.0,
    "review_count": 500,
    "min_budget": "¥500"
  },
  {
    "name": "Kudo Ramen",
    "region": "Tohoku",
    "city": "Aomori",
    "prefecture": "Aomori-ken",
    "neighborhood": "Furukawa",
    "category": "food",
    "coordinates": {
      "lat": 40.8262,
      "lng": 140.7358
    },
    "short_description": "Historic shop established in 1948, serving a classic, light soy sauce ramen beloved as a morning meal.",
    "estimated_duration": "45 mins",
    "rating": 3.9,
    "review_count": 600,
    "min_budget": "¥700"
  },
  {
    "name": "Hasshoku Center",
    "region": "Tohoku",
    "city": "Hachinohe",
    "prefecture": "Aomori-ken",
    "neighborhood": "Kawaragi",
    "category": "food",
    "coordinates": {
      "lat": 40.523,
      "lng": 141.468
    },
    "short_description": "Massive market famous for 'Shichirin-mura', where you can grill seafood you just bought on charcoal.",
    "estimated_duration": "2 hours",
    "rating": 4.3,
    "review_count": 5000,
    "min_budget": "¥3000"
  },
  {
    "name": "Taisho Roman Tea Room",
    "region": "Tohoku",
    "city": "Hirosaki",
    "prefecture": "Aomori-ken",
    "neighborhood": "Fujita Memorial Garden",
    "category": "food",
    "coordinates": {
      "lat": 40.6065,
      "lng": 140.4638
    },
    "short_description": "Elegant tea room in a western-style heritage building, serving various local apple pies.",
    "estimated_duration": "1 hour",
    "rating": 4.4,
    "review_count": 900,
    "min_budget": "¥1200"
  },
  {
    "name": "Tsuji Seimenjo",
    "region": "Tohoku",
    "city": "Aomori",
    "prefecture": "Aomori-ken",
    "neighborhood": "Furukawa",
    "category": "food",
    "coordinates": {
      "lat": 40.8255,
      "lng": 140.737
    },
    "short_description": "Unique shop famous for its 'Niboshi Habanero Ramen', blending fish broth with spicy peppers.",
    "estimated_duration": "1 hour",
    "rating": 4.1,
    "review_count": 400,
    "min_budget": "¥900"
  },
  {
    "name": "Ippachi Zushi",
    "region": "Tohoku",
    "city": "Aomori",
    "prefecture": "Aomori-ken",
    "neighborhood": "Shinmachi",
    "category": "food",
    "coordinates": {
      "lat": 40.828,
      "lng": 140.738
    },
    "short_description": "Highly regarded local sushi shop known for excellent craftsmanship and fresh Mutsu Bay toppings.",
    "estimated_duration": "1.5 hours",
    "rating": 4.3,
    "review_count": 300,
    "min_budget": "¥4000"
  },
  {
    "name": "Salon de Cafe Ange",
    "region": "Tohoku",
    "city": "Hirosaki",
    "prefecture": "Aomori-ken",
    "neighborhood": "Otemachi",
    "category": "food",
    "coordinates": {
      "lat": 40.604,
      "lng": 140.465
    },
    "short_description": "French-style cafe in a historic missionary house, famous for apple pie and apple curry.",
    "estimated_duration": "1 hour",
    "rating": 4.3,
    "review_count": 600,
    "min_budget": "¥1500"
  },
  {
    "name": "Minyo Izakaya Ringo-chaya",
    "region": "Tohoku",
    "city": "Hachinohe",
    "prefecture": "Aomori-ken",
    "neighborhood": "Tokaichi",
    "category": "food",
    "coordinates": {
      "lat": 40.509,
      "lng": 141.49
    },
    "short_description": "Famous spot to try Hachinohe Senbei-jiru (cracker soup) while enjoying local folk songs.",
    "estimated_duration": "2 hours",
    "rating": 4.0,
    "review_count": 400,
    "min_budget": "¥3500"
  },
  {
    "name": "Towada Barayaki Taishu Shokudo Tsukasa",
    "region": "Tohoku",
    "city": "Towada",
    "prefecture": "Aomori-ken",
    "neighborhood": "Towada City",
    "category": "food",
    "coordinates": {
      "lat": 40.613,
      "lng": 141.215
    },
    "short_description": "The go-to place for Towada Barayaki, a sweet and savory grilled beef belly and onion dish.",
    "estimated_duration": "1 hour",
    "rating": 4.2,
    "review_count": 800,
    "min_budget": "¥1200"
  },
  {
    "name": "Auga Fresh Market",
    "region": "Tohoku",
    "city": "Aomori",
    "prefecture": "Aomori-ken",
    "neighborhood": "Shinmachi",
    "category": "food",
    "coordinates": {
      "lat": 40.8288,
      "lng": 140.7325
    },
    "short_description": "Basement market with eateries serving incredible Kaisendon (seafood bowls) early in the morning.",
    "estimated_duration": "1 hour",
    "rating": 4.0,
    "review_count": 1500,
    "min_budget": "¥1500"
  },
  {
    "name": "Tatehana Wharf Morning Market",
    "region": "Tohoku",
    "city": "Hachinohe",
    "prefecture": "Aomori-ken",
    "neighborhood": "Minato",
    "category": "food",
    "coordinates": {
      "lat": 40.533,
      "lng": 141.525
    },
    "short_description": "Japan's largest morning market (Sundays only) with hundreds of stalls selling everything from fried chicken to soup.",
    "estimated_duration": "2 hours",
    "rating": 4.5,
    "review_count": 3000,
    "min_budget": "¥1000"
  },
  {
    "name": "Patisserie Yamazaki",
    "region": "Tohoku",
    "city": "Hirosaki",
    "prefecture": "Aomori-ken",
    "neighborhood": "Hyakkoku",
    "category": "food",
    "coordinates": {
      "lat": 40.6015,
      "lng": 140.47
    },
    "short_description": "Local cake shop famous for its 'Miracle Apple Pie' made without pesticides.",
    "estimated_duration": "20 mins",
    "rating": 4.1,
    "review_count": 300,
    "min_budget": "¥500"
  },
  {
    "name": "Shichibei Ya",
    "region": "Tohoku",
    "city": "Aomori",
    "prefecture": "Aomori-ken",
    "neighborhood": "Honcho",
    "category": "food",
    "coordinates": {
      "lat": 40.826,
      "lng": 140.743
    },
    "short_description": "Izakaya specializing in charcoal-grilled local seafood and vegetables.",
    "estimated_duration": "2 hours",
    "rating": 4.0,
    "review_count": 400,
    "min_budget": "¥4000"
  },
  {
    "name": "Saba no Eki",
    "region": "Tohoku",
    "city": "Hachinohe",
    "prefecture": "Aomori-ken",
    "neighborhood": "Mikka-machi",
    "category": "food",
    "coordinates": {
      "lat": 40.5095,
      "lng": 141.488
    },
    "short_description": "Specialty restaurant dedicated entirely to Hachinohe's famous fatty mackerel (Saba).",
    "estimated_duration": "1.5 hours",
    "rating": 4.3,
    "review_count": 500,
    "min_budget": "¥3000"
  },
  {
    "name": "Nono Hana",
    "region": "Tohoku",
    "city": "Aomori",
    "prefecture": "Aomori-ken",
    "neighborhood": "Shinmachi",
    "category": "food",
    "coordinates": {
      "lat": 40.827,
      "lng": 140.739
    },
    "short_description": "Modern izakaya offering a refined take on Aomori's local cuisine and sake.",
    "estimated_duration": "2 hours",
    "rating": 4.1,
    "review_count": 200,
    "min_budget": "¥4000"
  },
  {
    "name": "Angelique Hirosaki",
    "region": "Tohoku",
    "city": "Hirosaki",
    "prefecture": "Aomori-ken",
    "neighborhood": "Noda",
    "category": "food",
    "coordinates": {
      "lat": 40.59,
      "lng": 140.468
    },
    "short_description": "Famous patisserie known for its crispy, caramelized apple pie sticks.",
    "estimated_duration": "30 mins",
    "rating": 4.4,
    "review_count": 700,
    "min_budget": "¥500"
  },
  {
    "name": "Aji no Mensho",
    "region": "Tohoku",
    "city": "Hachinohe",
    "prefecture": "Aomori-ken",
    "neighborhood": "Mikka-machi",
    "category": "food",
    "coordinates": {
      "lat": 40.51,
      "lng": 141.489
    },
    "short_description": "The place to try Hachinohe Ramen, characterized by a light sardines and chicken broth.",
    "estimated_duration": "1 hour",
    "rating": 3.9,
    "review_count": 300,
    "min_budget": "¥800"
  },
  {
    "name": "Hide Zushi",
    "region": "Tohoku",
    "city": "Aomori",
    "prefecture": "Aomori-ken",
    "neighborhood": "Shinmachi",
    "category": "food",
    "coordinates": {
      "lat": 40.8278,
      "lng": 140.7385
    },
    "short_description": "Traditional sushi shop offering high-quality Oma tuna and local scallops.",
    "estimated_duration": "1.5 hours",
    "rating": 4.2,
    "review_count": 200,
    "min_budget": "¥5000"
  },
  {
    "name": "Restaurant Yamazaki",
    "region": "Tohoku",
    "city": "Hirosaki",
    "prefecture": "Aomori-ken",
    "neighborhood": "Oyakata-machi",
    "category": "food",
    "coordinates": {
      "lat": 40.602,
      "lng": 140.472
    },
    "short_description": "Famous French restaurant known for its 'Miracle Apple Cold Soup'.",
    "estimated_duration": "2 hours",
    "rating": 4.5,
    "review_count": 400,
    "min_budget": "¥5000"
  },
  {
    "name": "Kaisendon no Kudo",
    "region": "Tohoku",
    "city": "Aomori",
    "prefecture": "Aomori-ken",
    "neighborhood": "Shinmachi",
    "category": "food",
    "coordinates": {
      "lat": 40.8285,
      "lng": 140.7328
    },
    "short_description": "Popular breakfast spot in the Auga market for overflowing seafood rice bowls.",
    "estimated_duration": "45 mins",
    "rating": 4.1,
    "review_count": 600,
    "min_budget": "¥1500"
  },
  {
    "name": "Kaneido",
    "region": "Tohoku",
    "city": "Hirosaki",
    "prefecture": "Aomori-ken",
    "neighborhood": "Daikancho",
    "category": "food",
    "coordinates": {
      "lat": 40.598,
      "lng": 140.475
    },
    "short_description": "Long-established confectionery famous for its classic, buttery apple pie.",
    "estimated_duration": "20 mins",
    "rating": 4.2,
    "review_count": 400,
    "min_budget": "¥400"
  },
  {
    "name": "Hamazushi (Oma)",
    "region": "Tohoku",
    "city": "Oma",
    "prefecture": "Aomori-ken",
    "neighborhood": "Oma",
    "category": "food",
    "coordinates": {
      "lat": 41.528,
      "lng": 140.912
    },
    "short_description": "The ultimate destination for Oma Tuna, located in the fishing port itself (worth the drive).",
    "estimated_duration": "1.5 hours",
    "rating": 4.5,
    "review_count": 500,
    "min_budget": "¥5000"
  },
  {
    "name": "Gelato Natur",
    "region": "Tohoku",
    "city": "Aomori",
    "prefecture": "Aomori-ken",
    "neighborhood": "Waterfront (A-Factory)",
    "category": "food",
    "coordinates": {
      "lat": 40.8306,
      "lng": 140.7356
    },
    "short_description": "Gelato shop inside A-Factory offering flavors made from various Aomori apple varieties.",
    "estimated_duration": "20 mins",
    "rating": 4.2,
    "review_count": 800,
    "min_budget": "¥500"
  },
  {
    "name": "Miroku Yokocho",
    "region": "Tohoku",
    "city": "Hachinohe",
    "prefecture": "Aomori-ken",
    "neighborhood": "Mikka-machi",
    "category": "food",
    "coordinates": {
      "lat": 40.5098,
      "lng": 141.4885
    },
    "short_description": "Famous food stall village (Yatai-mura) with 26 stalls serving local specialties.",
    "estimated_duration": "2 hours",
    "rating": 4.2,
    "review_count": 1500,
    "min_budget": "¥3000"
  },
  {
    "name": "Marukai Ramen",
    "region": "Tohoku",
    "city": "Aomori",
    "prefecture": "Aomori-ken",
    "neighborhood": "Furukawa",
    "category": "food",
    "coordinates": {
      "lat": 40.825,
      "lng": 140.738
    },
    "short_description": "Local soul food spot serving extremely chewy noodles in a pure Niboshi broth.",
    "estimated_duration": "45 mins",
    "rating": 3.8,
    "review_count": 1000,
    "min_budget": "¥700"
  },
  {
    "name": "Suigetsu",
    "region": "Tohoku",
    "city": "Hirosaki",
    "prefecture": "Aomori-ken",
    "neighborhood": "Dote-machi",
    "category": "food",
    "coordinates": {
      "lat": 40.6,
      "lng": 140.471
    },
    "short_description": "Izakaya famous for Hirosaki's local specialty 'Igamenchi' (squid mince patties).",
    "estimated_duration": "1.5 hours",
    "rating": 4.1,
    "review_count": 200,
    "min_budget": "¥3000"
  },
  {
    "name": "Galetterie Da Sasino",
    "region": "Tohoku",
    "city": "Aomori",
    "prefecture": "Aomori-ken",
    "neighborhood": "Waterfront (A-Factory)",
    "category": "food",
    "coordinates": {
      "lat": 40.8307,
      "lng": 140.7354
    },
    "short_description": "Specialty shop for Galettes using Aomori buckwheat and apple cider.",
    "estimated_duration": "1 hour",
    "rating": 4.1,
    "review_count": 400,
    "min_budget": "¥1500"
  },
  {
    "name": "Sushidokoro Asuka",
    "region": "Tohoku",
    "city": "Aomori",
    "prefecture": "Aomori-ken",
    "neighborhood": "Shinjo",
    "category": "food",
    "coordinates": {
      "lat": 40.815,
      "lng": 140.715
    },
    "short_description": "High-quality conveyor belt sushi popular with locals for its freshness and price.",
    "estimated_duration": "1 hour",
    "rating": 4.2,
    "review_count": 800,
    "min_budget": "¥2500"
  },
  {
    "name": "Noel",
    "region": "Tohoku",
    "city": "Hirosaki",
    "prefecture": "Aomori-ken",
    "neighborhood": "Shinagawa-cho",
    "category": "food",
    "coordinates": {
      "lat": 40.595,
      "lng": 140.476
    },
    "short_description": "Quaint pastry shop loved for its rich, authentic apple pie.",
    "estimated_duration": "20 mins",
    "rating": 4.3,
    "review_count": 300,
    "min_budget": "¥500"
  },
  {
    "name": "Uogashi Sushi",
    "region": "Tohoku",
    "city": "Aomori",
    "prefecture": "Aomori-ken",
    "neighborhood": "Shinmachi",
    "category": "food",
    "coordinates": {
      "lat": 40.8275,
      "lng": 140.733
    },
    "short_description": "Standing sushi bar near the fish market offering great value sets.",
    "estimated_duration": "45 mins",
    "rating": 4.0,
    "review_count": 400,
    "min_budget": "¥1500"
  },
  {
    "name": "Kakuhiro",
    "region": "Tohoku",
    "city": "Aomori",
    "prefecture": "Aomori-ken",
    "neighborhood": "Shinmachi",
    "category": "food",
    "coordinates": {
      "lat": 40.8265,
      "lng": 140.7388
    },
    "short_description": "Ramen shop offering both the famous Miso Curry Milk Ramen and classic styles.",
    "estimated_duration": "1 hour",
    "rating": 3.9,
    "review_count": 500,
    "min_budget": "¥1000"
  },
  {
    "name": "Tsugaru-han Neputa-mura",
    "region": "Tohoku",
    "city": "Hirosaki",
    "prefecture": "Aomori-ken",
    "neighborhood": "Kamenokoko",
    "category": "food",
    "coordinates": {
      "lat": 40.61,
      "lng": 140.468
    },
    "short_description": "Cultural village offering hands-on experiences and traditional Tsugaru cuisine.",
    "estimated_duration": "1.5 hours",
    "rating": 4.1,
    "review_count": 1000,
    "min_budget": "¥1500"
  },
  {
    "name": "Ocean's Diner",
    "region": "Tohoku",
    "city": "Aomori",
    "prefecture": "Aomori-ken",
    "neighborhood": "Waterfront (A-Factory)",
    "category": "food",
    "coordinates": {
      "lat": 40.8304,
      "lng": 140.7353
    },
    "short_description": "Hamburger shop in A-Factory known for the 'Aomori Apple Burger'.",
    "estimated_duration": "45 mins",
    "rating": 4.0,
    "review_count": 600,
    "min_budget": "¥1200"
  },
  {
    "name": "Brick A-Factory",
    "region": "Tohoku",
    "city": "Hirosaki",
    "prefecture": "Aomori-ken",
    "neighborhood": "Yoshino-cho",
    "category": "food",
    "coordinates": {
      "lat": 40.5985,
      "lng": 140.478
    },
    "short_description": "Stylish cafe in a renovated brick warehouse serving apple pies and cider.",
    "estimated_duration": "1 hour",
    "rating": 4.2,
    "review_count": 400,
    "min_budget": "¥1000"
  },
  {
    "name": "Shokudo Chiyo",
    "region": "Tohoku",
    "city": "Aomori",
    "prefecture": "Aomori-ken",
    "neighborhood": "Furukawa",
    "category": "food",
    "coordinates": {
      "lat": 40.826,
      "lng": 140.7335
    },
    "short_description": "Hidden gem diner loved by locals for its simple, delicious scallop curry.",
    "estimated_duration": "45 mins",
    "rating": 4.1,
    "review_count": 200,
    "min_budget": "¥1000"
  },
  {
    "name": "Coffee Marron",
    "region": "Tohoku",
    "city": "Aomori",
    "prefecture": "Aomori-ken",
    "neighborhood": "Shinmachi",
    "category": "food",
    "coordinates": {
      "lat": 40.8282,
      "lng": 140.7375
    },
    "short_description": "Famous retro kissaten (coffee shop) serving thick toast and classic morning sets.",
    "estimated_duration": "1 hour",
    "rating": 4.3,
    "review_count": 800,
    "min_budget": "¥800"
  }
]
