[
  {
    "name": "Lucky Pierrot Marina Suehiro",
    "region": "Hokkaido",
    "city": "Hakodate",
    "prefecture": "Hokkaido",
    "neighborhood": "Bay Area",
    "category": "food",
    "coordinates": {
      "lat": 41.7665,
      "lng": 140.7168
    },
    "short_description": "Massive seaside branch of the famous local burger chain, featuring a 'Chinese Chicken Burger'.",
    "estimated_duration": "1 hour",
    "rating": 4.4,
    "review_count": 4500,
    "min_budget": "¥1000"
  },
  {
    "name": "Hakodate Asaichi Kikuyo Shokudo Honten",
    "region": "Hokkaido",
    "city": "Hakodate",
    "prefecture": "Hokkaido",
    "neighborhood": "Hakodate Station",
    "category": "food",
    "coordinates": {
      "lat": 41.7725,
      "lng": 140.7258
    },
    "short_description": "A Morning Market staple famous for its fresh seafood rice bowls (sanshoku-don).",
    "estimated_duration": "45 mins",
    "rating": 4.2,
    "review_count": 2100,
    "min_budget": "¥2000"
  },
  {
    "name": "Menchubo Ajisai Honten",
    "region": "Hokkaido",
    "city": "Hakodate",
    "prefecture": "Hokkaido",
    "neighborhood": "Goryokaku",
    "category": "food",
    "coordinates": {
      "lat": 41.7951,
      "lng": 140.7562
    },
    "short_description": "The most famous spot for Hakodate Shio (Salt) Ramen, featuring a clear, golden broth.",
    "estimated_duration": "1 hour",
    "rating": 4.0,
    "review_count": 3200,
    "min_budget": "¥1000"
  },
  {
    "name": "Hasegawa Store Bay Area",
    "region": "Hokkaido",
    "city": "Hakodate",
    "prefecture": "Hokkaido",
    "neighborhood": "Bay Area",
    "category": "food",
    "coordinates": {
      "lat": 41.7663,
      "lng": 140.7165
    },
    "short_description": "Famous for the 'Yakitori Bento', which is actually grilled pork skewers on rice.",
    "estimated_duration": "30 mins",
    "rating": 4.3,
    "review_count": 2500,
    "min_budget": "¥600"
  },
  {
    "name": "Uni Murakami Hakodate Honten",
    "region": "Hokkaido",
    "city": "Hakodate",
    "prefecture": "Hokkaido",
    "neighborhood": "Hakodate Station",
    "category": "food",
    "coordinates": {
      "lat": 41.7718,
      "lng": 140.7262
    },
    "short_description": "Specializes in additive-free sea urchin (uni), offering a sweet, creamy natural taste.",
    "estimated_duration": "1 hour",
    "rating": 4.4,
    "review_count": 1800,
    "min_budget": "¥4000"
  },
  {
    "name": "Seiryuken",
    "region": "Hokkaido",
    "city": "Hakodate",
    "prefecture": "Hokkaido",
    "neighborhood": "Hakodate Station",
    "category": "food",
    "coordinates": {
      "lat": 41.7715,
      "lng": 140.7302
    },
    "short_description": "Legendary ramen shop with limited daily servings; known for hand-made noodles and light soup.",
    "estimated_duration": "1 hour",
    "rating": 4.3,
    "review_count": 1200,
    "min_budget": "¥800"
  },
  {
    "name": "Gourmet Kaiten Sushi Kantaro Goryokaku",
    "region": "Hokkaido",
    "city": "Hakodate",
    "prefecture": "Hokkaido",
    "neighborhood": "Goryokaku",
    "category": "food",
    "coordinates": {
      "lat": 41.7858,
      "lng": 140.7538
    },
    "short_description": "High-quality conveyor belt sushi offering large cuts of fresh local fish at good prices.",
    "estimated_duration": "1 hour",
    "rating": 4.4,
    "review_count": 2800,
    "min_budget": "¥2500"
  },
  {
    "name": "Gotoken Restaurant Sekkatei",
    "region": "Hokkaido",
    "city": "Hakodate",
    "prefecture": "Hokkaido",
    "neighborhood": "Motomachi",
    "category": "food",
    "coordinates": {
      "lat": 41.7642,
      "lng": 140.7185
    },
    "short_description": "Historic western-style restaurant famous for its rich curry, established in 1879.",
    "estimated_duration": "1.5 hours",
    "rating": 4.2,
    "review_count": 1500,
    "min_budget": "¥3000"
  },
  {
    "name": "Sukiyaki Asari Honten",
    "region": "Hokkaido",
    "city": "Hakodate",
    "prefecture": "Hokkaido",
    "neighborhood": "Motomachi",
    "category": "food",
    "coordinates": {
      "lat": 41.7628,
      "lng": 140.7162
    },
    "short_description": "Traditional sukiyaki served in a century-old building, featuring high-grade wagyu beef.",
    "estimated_duration": "2 hours",
    "rating": 4.5,
    "review_count": 600,
    "min_budget": "¥5000"
  },
  {
    "name": "Hakodate Marukatsu Suisan",
    "region": "Hokkaido",
    "city": "Hakodate",
    "prefecture": "Hokkaido",
    "neighborhood": "Bay Area",
    "category": "food",
    "coordinates": {
      "lat": 41.7672,
      "lng": 140.7175
    },
    "short_description": "Popular kaiten sushi located in the Bay Area, run by a local fishmonger.",
    "estimated_duration": "1 hour",
    "rating": 4.1,
    "review_count": 2200,
    "min_budget": "¥2500"
  },
  {
    "name": "Rokkatei Goryokaku",
    "region": "Hokkaido",
    "city": "Hakodate",
    "prefecture": "Hokkaido",
    "neighborhood": "Goryokaku",
    "category": "food",
    "coordinates": {
      "lat": 41.7938,
      "lng": 140.7535
    },
    "short_description": "Cafe hidden behind a wall of trees, offering views of the park and exclusive sweets.",
    "estimated_duration": "1 hour",
    "rating": 4.5,
    "review_count": 1100,
    "min_budget": "¥1000"
  },
  {
    "name": "Pastry Snaffle's Kanemori",
    "region": "Hokkaido",
    "city": "Hakodate",
    "prefecture": "Hokkaido",
    "neighborhood": "Bay Area",
    "category": "food",
    "coordinates": {
      "lat": 41.7668,
      "lng": 140.717
    },
    "short_description": "Famous for 'Catchcakes' (cheese omelettes), airy soufflé-like cheesecakes unique to Hakodate.",
    "estimated_duration": "30 mins",
    "rating": 4.3,
    "review_count": 900,
    "min_budget": "¥500"
  },
  {
    "name": "Ikkatei Tabiji",
    "region": "Hokkaido",
    "city": "Hakodate",
    "prefecture": "Hokkaido",
    "neighborhood": "Hakodate Station",
    "category": "food",
    "coordinates": {
      "lat": 41.7728,
      "lng": 140.7255
    },
    "short_description": "Famous for the 'Dancing Squid Bowl' where fresh squid moves when soy sauce is poured.",
    "estimated_duration": "1 hour",
    "rating": 3.9,
    "review_count": 1300,
    "min_budget": "¥2000"
  },
  {
    "name": "California Baby",
    "region": "Hokkaido",
    "city": "Hakodate",
    "prefecture": "Hokkaido",
    "neighborhood": "Bay Area",
    "category": "food",
    "coordinates": {
      "lat": 41.7661,
      "lng": 140.716
    },
    "short_description": "Converted warehouse diner famous for 'Cisco Rice', a soul food of butter rice and sausage.",
    "estimated_duration": "1 hour",
    "rating": 3.8,
    "review_count": 600,
    "min_budget": "¥1000"
  },
  {
    "name": "Daimon Yokocho",
    "region": "Hokkaido",
    "city": "Hakodate",
    "prefecture": "Hokkaido",
    "neighborhood": "Hakodate Station",
    "category": "food",
    "coordinates": {
      "lat": 41.7712,
      "lng": 140.7288
    },
    "short_description": "A lively food stall village (yatai mura) with over 20 small izakayas and ramen bars.",
    "estimated_duration": "2 hours",
    "rating": 4.0,
    "review_count": 1500,
    "min_budget": "¥3000"
  },
  {
    "name": "Jiyoken",
    "region": "Hokkaido",
    "city": "Hakodate",
    "prefecture": "Hokkaido",
    "neighborhood": "Hakodate Station",
    "category": "food",
    "coordinates": {
      "lat": 41.7705,
      "lng": 140.7325
    },
    "short_description": "Old-school ramen shop beloved by locals for its simple, traditional salt ramen.",
    "estimated_duration": "45 mins",
    "rating": 4.1,
    "review_count": 700,
    "min_budget": "¥800"
  },
  {
    "name": "Angelique Voyage",
    "region": "Hokkaido",
    "city": "Hakodate",
    "prefecture": "Hokkaido",
    "neighborhood": "Motomachi",
    "category": "food",
    "coordinates": {
      "lat": 41.7685,
      "lng": 140.7125
    },
    "short_description": "Small pastry shop famous for its 'Chocolat Voyage' truffles and fresh crepes.",
    "estimated_duration": "30 mins",
    "rating": 4.4,
    "review_count": 800,
    "min_budget": "¥800"
  },
  {
    "name": "Hakodate Beer Hall",
    "region": "Hokkaido",
    "city": "Hakodate",
    "prefecture": "Hokkaido",
    "neighborhood": "Bay Area",
    "category": "food",
    "coordinates": {
      "lat": 41.767,
      "lng": 140.7168
    },
    "short_description": "Located in a red brick warehouse, serving local craft beer and Genghis Khan.",
    "estimated_duration": "1.5 hours",
    "rating": 4.0,
    "review_count": 1200,
    "min_budget": "¥3000"
  },
  {
    "name": "Hakodate Menya Ichimonji",
    "region": "Hokkaido",
    "city": "Hakodate",
    "prefecture": "Hokkaido",
    "neighborhood": "Yunokawa",
    "category": "food",
    "coordinates": {
      "lat": 41.7778,
      "lng": 140.7835
    },
    "short_description": "Popular ramen shop known for its roast pork and rich broths, near the hot spring area.",
    "estimated_duration": "1 hour",
    "rating": 3.9,
    "review_count": 900,
    "min_budget": "¥1000"
  },
  {
    "name": "Kaiseki no Sato Kira",
    "region": "Hokkaido",
    "city": "Hakodate",
    "prefecture": "Hokkaido",
    "neighborhood": "Mount Hakodate",
    "category": "food",
    "coordinates": {
      "lat": 41.7582,
      "lng": 140.7135
    },
    "short_description": "Upscale kaiseki dining offering stunning views of the Hakodate coastline.",
    "estimated_duration": "2 hours",
    "rating": 4.3,
    "review_count": 200,
    "min_budget": "¥6000"
  },
  {
    "name": "Tea Room Victorian Rose",
    "region": "Hokkaido",
    "city": "Hakodate",
    "prefecture": "Hokkaido",
    "neighborhood": "Motomachi",
    "category": "food",
    "coordinates": {
      "lat": 41.7648,
      "lng": 140.713
    },
    "short_description": "Elegant tea room located inside the Former British Consulate, serving afternoon tea.",
    "estimated_duration": "1 hour",
    "rating": 4.2,
    "review_count": 300,
    "min_budget": "¥1500"
  },
  {
    "name": "Yoshida Soup Curry",
    "region": "Hokkaido",
    "city": "Hakodate",
    "prefecture": "Hokkaido",
    "neighborhood": "Chiyogadai",
    "category": "food",
    "coordinates": {
      "lat": 41.7825,
      "lng": 140.745
    },
    "short_description": "Local favorite for soup curry with a light, spicy broth and crispy vegetables.",
    "estimated_duration": "1 hour",
    "rating": 4.3,
    "review_count": 600,
    "min_budget": "¥1200"
  },
  {
    "name": "Sushi Kihara",
    "region": "Hokkaido",
    "city": "Hakodate",
    "prefecture": "Hokkaido",
    "neighborhood": "Yunokawa",
    "category": "food",
    "coordinates": {
      "lat": 41.7758,
      "lng": 140.7882
    },
    "short_description": "High-end sushi counter facing the ocean, focusing on local Hakodate ingredients.",
    "estimated_duration": "2 hours",
    "rating": 4.6,
    "review_count": 300,
    "min_budget": "¥15000"
  },
  {
    "name": "Ramen Maido",
    "region": "Hokkaido",
    "city": "Hakodate",
    "prefecture": "Hokkaido",
    "neighborhood": "Yunokawa",
    "category": "food",
    "coordinates": {
      "lat": 41.7805,
      "lng": 140.7812
    },
    "short_description": "Michelin Bib Gourmand ramen shop managed by a wife-and-husband team.",
    "estimated_duration": "1 hour",
    "rating": 4.1,
    "review_count": 400,
    "min_budget": "¥900"
  },
  {
    "name": "Petite Merveille Red Brick",
    "region": "Hokkaido",
    "city": "Hakodate",
    "prefecture": "Hokkaido",
    "neighborhood": "Bay Area",
    "category": "food",
    "coordinates": {
      "lat": 41.7675,
      "lng": 140.7172
    },
    "short_description": "Confectionery famous for 'Mel Cheese', bite-sized soufflé cheesecakes.",
    "estimated_duration": "30 mins",
    "rating": 4.2,
    "review_count": 500,
    "min_budget": "¥500"
  },
  {
    "name": "Kyu-chaya-tei",
    "region": "Hokkaido",
    "city": "Hakodate",
    "prefecture": "Hokkaido",
    "neighborhood": "Motomachi",
    "category": "food",
    "coordinates": {
      "lat": 41.7635,
      "lng": 140.7165
    },
    "short_description": "Traditional Japanese tea salon in a renovated 19th-century building.",
    "estimated_duration": "1 hour",
    "rating": 4.3,
    "review_count": 200,
    "min_budget": "¥1200"
  },
  {
    "name": "Jolly Jellyfish",
    "region": "Hokkaido",
    "city": "Hakodate",
    "prefecture": "Hokkaido",
    "neighborhood": "Higashiyama",
    "category": "food",
    "coordinates": {
      "lat": 41.8025,
      "lng": 140.7685
    },
    "short_description": "The birthplace of 'Steak Pilaf', a hearty local soul food dish.",
    "estimated_duration": "1 hour",
    "rating": 3.9,
    "review_count": 500,
    "min_budget": "¥1500"
  },
  {
    "name": "Lucky Pierrot Goryokaku Koen Mae",
    "region": "Hokkaido",
    "city": "Hakodate",
    "prefecture": "Hokkaido",
    "neighborhood": "Goryokaku",
    "category": "food",
    "coordinates": {
      "lat": 41.7942,
      "lng": 140.755
    },
    "short_description": "The Goryokaku branch features an 'Angel' theme and is extremely popular with tourists.",
    "estimated_duration": "1 hour",
    "rating": 4.2,
    "review_count": 3000,
    "min_budget": "¥1000"
  },
  {
    "name": "Hakodate Ramen Shinano",
    "region": "Hokkaido",
    "city": "Hakodate",
    "prefecture": "Hokkaido",
    "neighborhood": "Hakodate Station",
    "category": "food",
    "coordinates": {
      "lat": 41.7718,
      "lng": 140.7275
    },
    "short_description": "Conveniently located shop known for light and savory shio ramen.",
    "estimated_duration": "45 mins",
    "rating": 3.9,
    "review_count": 800,
    "min_budget": "¥900"
  },
  {
    "name": "Ryuho",
    "region": "Hokkaido",
    "city": "Hakodate",
    "prefecture": "Hokkaido",
    "neighborhood": "Hakodate Station",
    "category": "food",
    "coordinates": {
      "lat": 41.7713,
      "lng": 140.7289
    },
    "short_description": "Famous ramen stall in Daimon Yokocho known for its golden chicken-oil broth.",
    "estimated_duration": "45 mins",
    "rating": 4.0,
    "review_count": 600,
    "min_budget": "¥900"
  },
  {
    "name": "Tsuga",
    "region": "Hokkaido",
    "city": "Hakodate",
    "prefecture": "Hokkaido",
    "neighborhood": "Horan-cho",
    "category": "food",
    "coordinates": {
      "lat": 41.7585,
      "lng": 140.7052
    },
    "short_description": "Hidden gem ramen shop in a residential area, loved by locals for simple flavors.",
    "estimated_duration": "45 mins",
    "rating": 4.1,
    "review_count": 150,
    "min_budget": "¥800"
  },
  {
    "name": "Ryotei Fumoto",
    "region": "Hokkaido",
    "city": "Hakodate",
    "prefecture": "Hokkaido",
    "neighborhood": "Motomachi",
    "category": "food",
    "coordinates": {
      "lat": 41.7615,
      "lng": 140.7145
    },
    "short_description": "Historical kaiseki restaurant offering a premium traditional Japanese dining experience.",
    "estimated_duration": "2.5 hours",
    "rating": 4.4,
    "review_count": 100,
    "min_budget": "¥10000"
  },
  {
    "name": "Coffee Room Kiku-izumi",
    "region": "Hokkaido",
    "city": "Hakodate",
    "prefecture": "Hokkaido",
    "neighborhood": "Motomachi",
    "category": "food",
    "coordinates": {
      "lat": 41.763,
      "lng": 140.712
    },
    "short_description": "Cafe located in a pink Taisho-era building, famous for its parfait and retro vibe.",
    "estimated_duration": "1 hour",
    "rating": 4.2,
    "review_count": 300,
    "min_budget": "¥1000"
  },
  {
    "name": "Lucky Pierrot Bay Area Honten",
    "region": "Hokkaido",
    "city": "Hakodate",
    "prefecture": "Hokkaido",
    "neighborhood": "Bay Area",
    "category": "food",
    "coordinates": {
      "lat": 41.7658,
      "lng": 140.7162
    },
    "short_description": "The original main store of the burger chain, featuring a forest/swing theme.",
    "estimated_duration": "1 hour",
    "rating": 4.3,
    "review_count": 2000,
    "min_budget": "¥1000"
  },
  {
    "name": "Transistor Cafe",
    "region": "Hokkaido",
    "city": "Hakodate",
    "prefecture": "Hokkaido",
    "neighborhood": "Motomachi",
    "category": "food",
    "coordinates": {
      "lat": 41.7655,
      "lng": 140.7115
    },
    "short_description": "Stylish hidden cafe popular for its seasonal fruit parfaits and pizza.",
    "estimated_duration": "1 hour",
    "rating": 4.3,
    "review_count": 200,
    "min_budget": "¥1500"
  },
  {
    "name": "Bentenzushi",
    "region": "Hokkaido",
    "city": "Hakodate",
    "prefecture": "Hokkaido",
    "neighborhood": "Omachi",
    "category": "food",
    "coordinates": {
      "lat": 41.7682,
      "lng": 140.7105
    },
    "short_description": "Local sushi shop offering excellent cost-performance and friendly service.",
    "estimated_duration": "1 hour",
    "rating": 4.5,
    "review_count": 150,
    "min_budget": "¥2000"
  },
  {
    "name": "Soba-dokoro Matsu-kura",
    "region": "Hokkaido",
    "city": "Hakodate",
    "prefecture": "Hokkaido",
    "neighborhood": "Yunokawa",
    "category": "food",
    "coordinates": {
      "lat": 41.7795,
      "lng": 140.785
    },
    "short_description": "Historic soba noodle shop established in Meiji era, known for generous portions.",
    "estimated_duration": "1 hour",
    "rating": 3.8,
    "review_count": 400,
    "min_budget": "¥1000"
  },
  {
    "name": "Hakodate Ramen Room 18",
    "region": "Hokkaido",
    "city": "Hakodate",
    "prefecture": "Hokkaido",
    "neighborhood": "Showacho",
    "category": "food",
    "coordinates": {
      "lat": 41.815,
      "lng": 140.76
    },
    "short_description": "Modern ramen shop that received a Michelin Bib Gourmand for its refined soup.",
    "estimated_duration": "1 hour",
    "rating": 4.2,
    "review_count": 200,
    "min_budget": "¥1000"
  },
  {
    "name": "Sabo Hishii",
    "region": "Hokkaido",
    "city": "Hakodate",
    "prefecture": "Hokkaido",
    "neighborhood": "Motomachi",
    "category": "food",
    "coordinates": {
      "lat": 41.7612,
      "lng": 140.7158
    },
    "short_description": "Atmospheric tea house in a vintage building, serving matcha and sweets.",
    "estimated_duration": "1 hour",
    "rating": 4.3,
    "review_count": 250,
    "min_budget": "¥1000"
  },
  {
    "name": "Ika Kiyomura",
    "region": "Hokkaido",
    "city": "Hakodate",
    "prefecture": "Hokkaido",
    "neighborhood": "Hakodate Station",
    "category": "food",
    "coordinates": {
      "lat": 41.7722,
      "lng": 140.7295
    },
    "short_description": "Seafood izakaya specializing in live squid sashimi prepared instantly.",
    "estimated_duration": "1.5 hours",
    "rating": 4.0,
    "review_count": 500,
    "min_budget": "¥3000"
  },
  {
    "name": "Soup Curry Begirama",
    "region": "Hokkaido",
    "city": "Hakodate",
    "prefecture": "Hokkaido",
    "neighborhood": "Hakodate Station",
    "category": "food",
    "coordinates": {
      "lat": 41.771,
      "lng": 140.728
    },
    "short_description": "Popular new-wave soup curry shop near the station.",
    "estimated_duration": "1 hour",
    "rating": 4.2,
    "review_count": 300,
    "min_budget": "¥1400"
  },
  {
    "name": "Hakodate Kaisen Ryori Kaikobo",
    "region": "Hokkaido",
    "city": "Hakodate",
    "prefecture": "Hokkaido",
    "neighborhood": "Hakodate Station",
    "category": "food",
    "coordinates": {
      "lat": 41.773,
      "lng": 140.7245
    },
    "short_description": "Directly managed by a seafood wholesaler, offering massive seafood bowls.",
    "estimated_duration": "1 hour",
    "rating": 4.1,
    "review_count": 900,
    "min_budget": "¥2000"
  },
  {
    "name": "Menchubo Ajisai JR Hakodate",
    "region": "Hokkaido",
    "city": "Hakodate",
    "prefecture": "Hokkaido",
    "neighborhood": "Hakodate Station",
    "category": "food",
    "coordinates": {
      "lat": 41.7735,
      "lng": 140.7265
    },
    "short_description": "Convenient station branch of the famous salt ramen chain.",
    "estimated_duration": "45 mins",
    "rating": 3.9,
    "review_count": 1000,
    "min_budget": "¥1000"
  },
  {
    "name": "Kikuya",
    "region": "Hokkaido",
    "city": "Hakodate",
    "prefecture": "Hokkaido",
    "neighborhood": "Hakodate Station",
    "category": "food",
    "coordinates": {
      "lat": 41.772,
      "lng": 140.726
    },
    "short_description": "Morning market eatery famous for its transparent squid sashimi.",
    "estimated_duration": "1 hour",
    "rating": 4.0,
    "review_count": 300,
    "min_budget": "¥2000"
  },
  {
    "name": "Sabo Muzishisai",
    "region": "Hokkaido",
    "city": "Hakodate",
    "prefecture": "Hokkaido",
    "neighborhood": "Motomachi",
    "category": "food",
    "coordinates": {
      "lat": 41.764,
      "lng": 140.7135
    },
    "short_description": "Quiet cafe offering glorious views of the harbor and homemade sweets.",
    "estimated_duration": "1 hour",
    "rating": 4.4,
    "review_count": 100,
    "min_budget": "¥1000"
  },
  {
    "name": "Hanamaru (Hakodate)",
    "region": "Hokkaido",
    "city": "Hakodate",
    "prefecture": "Hokkaido",
    "neighborhood": "Wakamatsucho",
    "category": "food",
    "coordinates": {
      "lat": 41.7732,
      "lng": 140.7248
    },
    "short_description": "Not to be confused with the Sapporo chain, a local favorite for seafood bowls.",
    "estimated_duration": "1 hour",
    "rating": 4.0,
    "review_count": 200,
    "min_budget": "¥2000"
  }
]
