[
  {
    "name": "Mori Mori Sushi Omicho",
    "region": "Chubu",
    "city": "Kanazawa",
    "prefecture": "Ishikawa-ken",
    "neighborhood": "Omicho Market",
    "category": "food",
    "coordinates": {
      "lat": 36.5717,
      "lng": 136.6562
    },
    "short_description": "Extremely popular kaiten sushi in the market offering high-quality local seafood like Nodoguro.",
    "estimated_duration": "1 hour",
    "rating": 4.0,
    "review_count": 3000,
    "min_budget": "¥2500"
  },
  {
    "name": "Kanazawa Maimon Sushi Kanazawa Station",
    "region": "Chubu",
    "city": "Kanazawa",
    "prefecture": "Ishikawa-ken",
    "neighborhood": "Kanazawa Station",
    "category": "food",
    "coordinates": {
      "lat": 36.5776,
      "lng": 136.6474
    },
    "short_description": "Premium conveyor belt sushi chain known for serving fresh catch from nearby ports.",
    "estimated_duration": "1 hour",
    "rating": 4.1,
    "review_count": 2000,
    "min_budget": "¥3000"
  },
  {
    "name": "Otome Sushi",
    "region": "Chubu",
    "city": "Kanazawa",
    "prefecture": "Ishikawa-ken",
    "neighborhood": "Kiguramachi",
    "category": "food",
    "coordinates": {
      "lat": 36.5614,
      "lng": 136.6517
    },
    "short_description": "High-end sushi restaurant favored by locals for its exquisite craftsmanship and hidden location.",
    "estimated_duration": "1.5 hours",
    "rating": 4.6,
    "review_count": 600,
    "min_budget": "¥15000"
  },
  {
    "name": "Yamasan Sushi Honten",
    "region": "Chubu",
    "city": "Kanazawa",
    "prefecture": "Ishikawa-ken",
    "neighborhood": "Omicho Market",
    "category": "food",
    "coordinates": {
      "lat": 36.5717,
      "lng": 136.6569
    },
    "short_description": "Famous for its visually stunning 'Kaisendon' (seafood rice bowl) overflowing with gold-leaf topped sashimi.",
    "estimated_duration": "1 hour",
    "rating": 4.1,
    "review_count": 2500,
    "min_budget": "¥3000"
  },
  {
    "name": "Iki-iki Tei",
    "region": "Chubu",
    "city": "Kanazawa",
    "prefecture": "Ishikawa-ken",
    "neighborhood": "Omicho Market",
    "category": "food",
    "coordinates": {
      "lat": 36.5719,
      "lng": 136.6564
    },
    "short_description": "Tiny counter-style shop in the market famous for its fresh and reasonably priced seafood bowls.",
    "estimated_duration": "45 mins",
    "rating": 4.3,
    "review_count": 1200,
    "min_budget": "¥2000"
  },
  {
    "name": "Champion's Curry Omicho",
    "region": "Chubu",
    "city": "Kanazawa",
    "prefecture": "Ishikawa-ken",
    "neighborhood": "Omicho Market",
    "category": "food",
    "coordinates": {
      "lat": 36.5716,
      "lng": 136.6559
    },
    "short_description": "The originator of 'Kanazawa Curry', characterized by its thick, dark sauce and stainless steel plates.",
    "estimated_duration": "45 mins",
    "rating": 3.9,
    "review_count": 1500,
    "min_budget": "¥900"
  },
  {
    "name": "Turban Curry",
    "region": "Chubu",
    "city": "Kanazawa",
    "prefecture": "Ishikawa-ken",
    "neighborhood": "Hirosaka",
    "category": "food",
    "coordinates": {
      "lat": 36.5619,
      "lng": 136.6552
    },
    "short_description": "A beloved local curry shop serving rich, savory Kanazawa-style curry with pork cutlet.",
    "estimated_duration": "45 mins",
    "rating": 4.2,
    "review_count": 1800,
    "min_budget": "¥800"
  },
  {
    "name": "Grill Otsuka",
    "region": "Chubu",
    "city": "Kanazawa",
    "prefecture": "Ishikawa-ken",
    "neighborhood": "Katamachi",
    "category": "food",
    "coordinates": {
      "lat": 36.5619,
      "lng": 136.6519
    },
    "short_description": "Famous for 'Hanton Rice', a local specialty of ketchup rice topped with creamy egg and fried fish.",
    "estimated_duration": "1 hour",
    "rating": 4.0,
    "review_count": 2200,
    "min_budget": "¥1000"
  },
  {
    "name": "Menya Taiga",
    "region": "Chubu",
    "city": "Kanazawa",
    "prefecture": "Ishikawa-ken",
    "neighborhood": "Kanazawa Station",
    "category": "food",
    "coordinates": {
      "lat": 36.5788,
      "lng": 136.6523
    },
    "short_description": "Top-rated ramen shop specializing in a rich, flavorful miso ramen that draws long lines.",
    "estimated_duration": "1 hour",
    "rating": 4.4,
    "review_count": 2800,
    "min_budget": "¥1000"
  },
  {
    "name": "Itaru Honten",
    "region": "Chubu",
    "city": "Kanazawa",
    "prefecture": "Ishikawa-ken",
    "neighborhood": "Kakinokibatake",
    "category": "food",
    "coordinates": {
      "lat": 36.5609,
      "lng": 136.656
    },
    "short_description": "Renowned izakaya famous for its fresh sashimi boat and local sake selection.",
    "estimated_duration": "2 hours",
    "rating": 4.4,
    "review_count": 2000,
    "min_budget": "¥4000"
  },
  {
    "name": "Kuroyuri",
    "region": "Chubu",
    "city": "Kanazawa",
    "prefecture": "Ishikawa-ken",
    "neighborhood": "Kanazawa Station",
    "category": "food",
    "coordinates": {
      "lat": 36.5777,
      "lng": 136.6473
    },
    "short_description": "Long-established oden restaurant inside the station, serving local ingredients like 'Kuruma-bu'.",
    "estimated_duration": "1.5 hours",
    "rating": 3.8,
    "review_count": 2500,
    "min_budget": "¥2000"
  },
  {
    "name": "Hakuichi Higashiyama",
    "region": "Chubu",
    "city": "Kanazawa",
    "prefecture": "Ishikawa-ken",
    "neighborhood": "Higashi Chaya",
    "category": "food",
    "coordinates": {
      "lat": 36.5723,
      "lng": 136.6665
    },
    "short_description": "Famous for the luxurious 'Gold Leaf Soft Serve', a must-try sweet in the tea district.",
    "estimated_duration": "30 mins",
    "rating": 4.2,
    "review_count": 1500,
    "min_budget": "¥1000"
  },
  {
    "name": "Fuwari",
    "region": "Chubu",
    "city": "Kanazawa",
    "prefecture": "Ishikawa-ken",
    "neighborhood": "Owaricho",
    "category": "food",
    "coordinates": {
      "lat": 36.5721,
      "lng": 136.661
    },
    "short_description": "Stylish izakaya offering creative charcoal-grilled dishes in a renovated traditional house.",
    "estimated_duration": "2 hours",
    "rating": 4.4,
    "review_count": 800,
    "min_budget": "¥5000"
  },
  {
    "name": "Hachiban Ramen Kanazawa Station",
    "region": "Chubu",
    "city": "Kanazawa",
    "prefecture": "Ishikawa-ken",
    "neighborhood": "Kanazawa Station",
    "category": "food",
    "coordinates": {
      "lat": 36.5775,
      "lng": 136.6476
    },
    "short_description": "The soul food of Ishikawa, known for its yasai (vegetable) ramen with the '8' fish cake.",
    "estimated_duration": "45 mins",
    "rating": 3.8,
    "review_count": 1200,
    "min_budget": "¥900"
  },
  {
    "name": "Omicho Croquette",
    "region": "Chubu",
    "city": "Kanazawa",
    "prefecture": "Ishikawa-ken",
    "neighborhood": "Omicho Market",
    "category": "food",
    "coordinates": {
      "lat": 36.5714,
      "lng": 136.656
    },
    "short_description": "Market stall selling freshly fried croquettes with fillings like sweet shrimp and crab.",
    "estimated_duration": "20 mins",
    "rating": 3.7,
    "review_count": 500,
    "min_budget": "¥300"
  },
  {
    "name": "Dai-nana Gyoza no Mise",
    "region": "Chubu",
    "city": "Kanazawa",
    "prefecture": "Ishikawa-ken",
    "neighborhood": "Morinosato",
    "category": "food",
    "coordinates": {
      "lat": 36.5508,
      "lng": 136.689
    },
    "short_description": "Cult favorite for 'White Gyoza', thick-skinned dumplings fried to a crispy golden brown.",
    "estimated_duration": "1 hour",
    "rating": 3.6,
    "review_count": 4000,
    "min_budget": "¥1000"
  },
  {
    "name": "Kaikaro Teahouse",
    "region": "Chubu",
    "city": "Kanazawa",
    "prefecture": "Ishikawa-ken",
    "neighborhood": "Higashi Chaya",
    "category": "food",
    "coordinates": {
      "lat": 36.5724,
      "lng": 136.6671
    },
    "short_description": "An operating geisha teahouse open to the public for matcha and traditional sweets.",
    "estimated_duration": "1 hour",
    "rating": 4.3,
    "review_count": 600,
    "min_budget": "¥1500"
  },
  {
    "name": "Akagumi",
    "region": "Chubu",
    "city": "Kanazawa",
    "prefecture": "Ishikawa-ken",
    "neighborhood": "Katamachi",
    "category": "food",
    "coordinates": {
      "lat": 36.5619,
      "lng": 136.6532
    },
    "short_description": "Popular, lively oden shop offering a rich variety of local ingredients and sake.",
    "estimated_duration": "1.5 hours",
    "rating": 4.1,
    "review_count": 800,
    "min_budget": "¥3000"
  },
  {
    "name": "Kagaya Kanazawa",
    "region": "Chubu",
    "city": "Kanazawa",
    "prefecture": "Ishikawa-ken",
    "neighborhood": "Kanazawa Station",
    "category": "food",
    "coordinates": {
      "lat": 36.5776,
      "lng": 136.6474
    },
    "short_description": "Restaurant by the famous Kagaya Ryokan, serving authentic Kaga cuisine sets conveniently.",
    "estimated_duration": "1.5 hours",
    "rating": 4.2,
    "review_count": 600,
    "min_budget": "¥3000"
  },
  {
    "name": "Curio Espresso and Vintage Design",
    "region": "Chubu",
    "city": "Kanazawa",
    "prefecture": "Ishikawa-ken",
    "neighborhood": "Yasuecho",
    "category": "food",
    "coordinates": {
      "lat": 36.5733,
      "lng": 136.6554
    },
    "short_description": "Seattle-style coffee shop run by a friendly couple, popular for its espresso and sandwiches.",
    "estimated_duration": "1 hour",
    "rating": 4.6,
    "review_count": 500,
    "min_budget": "¥1000"
  },
  {
    "name": "Le Musée de H Kanazawa",
    "region": "Chubu",
    "city": "Kanazawa",
    "prefecture": "Ishikawa-ken",
    "neighborhood": "Dewamachi",
    "category": "food",
    "coordinates": {
      "lat": 36.5599,
      "lng": 136.6614
    },
    "short_description": "Patisserie by world-renowned chef Hironobu Tsujiguchi, using local Noto ingredients.",
    "estimated_duration": "1 hour",
    "rating": 4.3,
    "review_count": 1200,
    "min_budget": "¥1500"
  },
  {
    "name": "Cafe Tamon",
    "region": "Chubu",
    "city": "Kanazawa",
    "prefecture": "Ishikawa-ken",
    "neighborhood": "Higashi Chaya",
    "category": "food",
    "coordinates": {
      "lat": 36.573,
      "lng": 136.6679
    },
    "short_description": "Cafe in a preserved townhouse known for fluffy rice-flour pancakes.",
    "estimated_duration": "1 hour",
    "rating": 4.1,
    "review_count": 600,
    "min_budget": "¥1500"
  },
  {
    "name": "Miyuki",
    "region": "Chubu",
    "city": "Kanazawa",
    "prefecture": "Ishikawa-ken",
    "neighborhood": "Katamachi",
    "category": "food",
    "coordinates": {
      "lat": 36.5588,
      "lng": 136.6527
    },
    "short_description": "Known for its 'Kani-men' (crab shell oden), a seasonal delicacy of Kanazawa.",
    "estimated_duration": "1.5 hours",
    "rating": 4.4,
    "review_count": 400,
    "min_budget": "¥4000"
  },
  {
    "name": "Kotobukiya",
    "region": "Chubu",
    "city": "Kanazawa",
    "prefecture": "Ishikawa-ken",
    "neighborhood": "Owaricho",
    "category": "food",
    "coordinates": {
      "lat": 36.572,
      "lng": 136.6586
    },
    "short_description": "Refined Shojin Ryori (vegetarian) and Kaiseki served in a stunning 160-year-old merchant house.",
    "estimated_duration": "2 hours",
    "rating": 4.2,
    "review_count": 200,
    "min_budget": "¥6000"
  },
  {
    "name": "Fumuroya Cafe",
    "region": "Chubu",
    "city": "Kanazawa",
    "prefecture": "Ishikawa-ken",
    "neighborhood": "Kanazawa Station",
    "category": "food",
    "coordinates": {
      "lat": 36.5785,
      "lng": 136.6474
    },
    "short_description": "Specialty cafe for 'Fu' (wheat gluten), offering modern takes on this traditional ingredient.",
    "estimated_duration": "1 hour",
    "rating": 4.1,
    "review_count": 400,
    "min_budget": "¥1200"
  }
]
