[
  {
    "name": "Wakkoqu Kitano",
    "region": "Kansai",
    "city": "Kobe",
    "prefecture": "Hyogo-ken",
    "neighborhood": "Kitano",
    "category": "food",
    "coordinates": {
      "lat": 34.7025,
      "lng": 135.1915
    },
    "short_description": "A refined steakhouse offering a classic Kobe beef experience with chefs grilling tableside.",
    "estimated_duration": "2 hours",
    "rating": 4.5,
    "review_count": 800,
    "min_budget": "¥12000"
  },
  {
    "name": "Mouriya Honten",
    "region": "Kansai",
    "city": "Kobe",
    "prefecture": "Hyogo-ken",
    "neighborhood": "Sannomiya",
    "category": "food",
    "coordinates": {
      "lat": 34.6928,
      "lng": 135.1912
    },
    "short_description": "One of Kobe's oldest steak restaurants, famous for its dry-aged beef and stone-walled interior.",
    "estimated_duration": "1.5-2 hours",
    "rating": 4.4,
    "review_count": 1500,
    "min_budget": "¥10000"
  },
  {
    "name": "Steakland Kobe",
    "region": "Kansai",
    "city": "Kobe",
    "prefecture": "Hyogo-ken",
    "neighborhood": "Sannomiya",
    "category": "food",
    "coordinates": {
      "lat": 34.693,
      "lng": 135.1925
    },
    "short_description": "Extremely popular, tourist-friendly teppanyaki spot offering high-quality beef at budget lunch prices.",
    "estimated_duration": "1-1.5 hours",
    "rating": 4.1,
    "review_count": 4000,
    "min_budget": "¥3000"
  },
  {
    "name": "Kobe Beef Steak Ishida",
    "region": "Kansai",
    "city": "Kobe",
    "prefecture": "Hyogo-ken",
    "neighborhood": "Sannomiya",
    "category": "food",
    "coordinates": {
      "lat": 34.694,
      "lng": 135.193
    },
    "short_description": "Known for serving only A5-grade Kobe beef with exceptional omotenashi hospitality.",
    "estimated_duration": "2 hours",
    "rating": 4.7,
    "review_count": 1200,
    "min_budget": "¥15000"
  },
  {
    "name": "Grill Ippei Sannomiya",
    "region": "Kansai",
    "city": "Kobe",
    "prefecture": "Hyogo-ken",
    "neighborhood": "Sannomiya",
    "category": "food",
    "coordinates": {
      "lat": 34.6955,
      "lng": 135.1945
    },
    "short_description": "Beloved Yoshoku (Western-style Japanese) restaurant famous for its beef cutlets and demi-glace sauce.",
    "estimated_duration": "1 hour",
    "rating": 4.3,
    "review_count": 900,
    "min_budget": "¥1500"
  },
  {
    "name": "L'Ami",
    "region": "Kansai",
    "city": "Kobe",
    "prefecture": "Hyogo-ken",
    "neighborhood": "Motomachi",
    "category": "food",
    "coordinates": {
      "lat": 34.6895,
      "lng": 135.1885
    },
    "short_description": "Classic bistro famous for its fluffy crab omelet and hamburg steak; long queues are common.",
    "estimated_duration": "1 hour",
    "rating": 4.4,
    "review_count": 800,
    "min_budget": "¥1500"
  },
  {
    "name": "Yoshoku no Asahi",
    "region": "Kansai",
    "city": "Kobe",
    "prefecture": "Hyogo-ken",
    "neighborhood": "Nishimotomachi",
    "category": "food",
    "coordinates": {
      "lat": 34.6835,
      "lng": 135.1785
    },
    "short_description": "Legendary local spot for Bifukatsu (beef cutlet) that is cooked rare and incredibly tender.",
    "estimated_duration": "1-1.5 hours",
    "rating": 4.6,
    "review_count": 1100,
    "min_budget": "¥1500"
  },
  {
    "name": "Rousho Ki",
    "region": "Kansai",
    "city": "Kobe",
    "prefecture": "Hyogo-ken",
    "neighborhood": "Nankinmachi",
    "category": "food",
    "coordinates": {
      "lat": 34.6878,
      "lng": 135.1882
    },
    "short_description": "The most famous shop in Chinatown, selling small, juicy pork buns (butaman) since 1915.",
    "estimated_duration": "30 mins",
    "rating": 4.0,
    "review_count": 3500,
    "min_budget": "¥500"
  },
  {
    "name": "Minsei",
    "region": "Kansai",
    "city": "Kobe",
    "prefecture": "Hyogo-ken",
    "neighborhood": "Nankinmachi",
    "category": "food",
    "coordinates": {
      "lat": 34.688,
      "lng": 135.1875
    },
    "short_description": "Historic Cantonese restaurant famous for its fried squid wrapped in lettuce.",
    "estimated_duration": "1.5 hours",
    "rating": 4.2,
    "review_count": 600,
    "min_budget": "¥3000"
  },
  {
    "name": "Hyotan Gyoza",
    "region": "Kansai",
    "city": "Kobe",
    "prefecture": "Hyogo-ken",
    "neighborhood": "Motomachi",
    "category": "food",
    "coordinates": {
      "lat": 34.6885,
      "lng": 135.1878
    },
    "short_description": "Kobe-style gyoza specialty shop where dumplings are eaten with a miso-based dipping sauce.",
    "estimated_duration": "45 mins",
    "rating": 4.3,
    "review_count": 1800,
    "min_budget": "¥1000"
  },
  {
    "name": "Gyoza Daigaku",
    "region": "Kansai",
    "city": "Kobe",
    "prefecture": "Hyogo-ken",
    "neighborhood": "Motomachi",
    "category": "food",
    "coordinates": {
      "lat": 34.689,
      "lng": 135.188
    },
    "short_description": "A 'Gyoza University' offering crisp, thin-skinned dumplings in a no-frills, retro setting.",
    "estimated_duration": "45 mins",
    "rating": 4.2,
    "review_count": 1500,
    "min_budget": "¥800"
  },
  {
    "name": "Red Rock Sannomiya",
    "region": "Kansai",
    "city": "Kobe",
    "prefecture": "Hyogo-ken",
    "neighborhood": "Sannomiya",
    "category": "food",
    "coordinates": {
      "lat": 34.6915,
      "lng": 135.1905
    },
    "short_description": "The birthplace of the roast beef bowl craze; massive piles of beef over rice at affordable prices.",
    "estimated_duration": "45 mins",
    "rating": 4.1,
    "review_count": 2200,
    "min_budget": "¥1200"
  },
  {
    "name": "Cafe Freundlieb",
    "region": "Kansai",
    "city": "Kobe",
    "prefecture": "Hyogo-ken",
    "neighborhood": "Kitano",
    "category": "food",
    "coordinates": {
      "lat": 34.6985,
      "lng": 135.194
    },
    "short_description": "Stunning cafe and bakery housed in a renovated 1929 church, famous for its roast beef sandwiches.",
    "estimated_duration": "1.5 hours",
    "rating": 4.4,
    "review_count": 1800,
    "min_budget": "¥1500"
  },
  {
    "name": "Nishimura Coffee Kitano",
    "region": "Kansai",
    "city": "Kobe",
    "prefecture": "Hyogo-ken",
    "neighborhood": "Kitano",
    "category": "food",
    "coordinates": {
      "lat": 34.699,
      "lng": 135.1905
    },
    "short_description": "A historic, ivy-covered coffee house that pioneered the cafe culture in Kobe; luxurious antique interior.",
    "estimated_duration": "1 hour",
    "rating": 4.3,
    "review_count": 1400,
    "min_budget": "¥1000"
  },
  {
    "name": "Comme Chinois",
    "region": "Kansai",
    "city": "Kobe",
    "prefecture": "Hyogo-ken",
    "neighborhood": "Sannomiya",
    "category": "food",
    "coordinates": {
      "lat": 34.692,
      "lng": 135.1955
    },
    "short_description": "One of Kobe's top bakeries featuring an open kitchen and an incredible array of French-style breads.",
    "estimated_duration": "45 mins",
    "rating": 4.5,
    "review_count": 2500,
    "min_budget": "¥1000"
  },
  {
    "name": "Patisserie Tooth Tooth Maison 15th",
    "region": "Kansai",
    "city": "Kobe",
    "prefecture": "Hyogo-ken",
    "neighborhood": "Kyukyoryuchi",
    "category": "food",
    "coordinates": {
      "lat": 34.6875,
      "lng": 135.193
    },
    "short_description": "Elegant tea salon and patisserie located in a colonial-style heritage building from the 1880s.",
    "estimated_duration": "1.5 hours",
    "rating": 4.3,
    "review_count": 1200,
    "min_budget": "¥1500"
  },
  {
    "name": "Kannonya Motomachi",
    "region": "Kansai",
    "city": "Kobe",
    "prefecture": "Hyogo-ken",
    "neighborhood": "Motomachi",
    "category": "food",
    "coordinates": {
      "lat": 34.688,
      "lng": 135.187
    },
    "short_description": "Famous for its unique warm Danish cheesecake, where melted cheese is poured over a sponge cake.",
    "estimated_duration": "1 hour",
    "rating": 4.0,
    "review_count": 1500,
    "min_budget": "¥800"
  },
  {
    "name": "Motomachi Cake",
    "region": "Kansai",
    "city": "Kobe",
    "prefecture": "Hyogo-ken",
    "neighborhood": "Motomachi",
    "category": "food",
    "coordinates": {
      "lat": 34.6865,
      "lng": 135.184
    },
    "short_description": "Simple, beloved local sweet shop famous for the 'Zakuro', a pomegranate-shaped sponge cake.",
    "estimated_duration": "45 mins",
    "rating": 4.4,
    "review_count": 900,
    "min_budget": "¥500"
  },
  {
    "name": "Kobe Frantz",
    "region": "Kansai",
    "city": "Kobe",
    "prefecture": "Hyogo-ken",
    "neighborhood": "Harborland",
    "category": "food",
    "coordinates": {
      "lat": 34.6795,
      "lng": 135.1845
    },
    "short_description": "Popular confectionery known for its 'Magic Pot Pudding' sold in cute red ceramic jars.",
    "estimated_duration": "15 mins",
    "rating": 4.1,
    "review_count": 500,
    "min_budget": "¥500"
  },
  {
    "name": "Enishi",
    "region": "Kansai",
    "city": "Kobe",
    "prefecture": "Hyogo-ken",
    "neighborhood": "Nada",
    "category": "food",
    "coordinates": {
      "lat": 34.708,
      "lng": 135.215
    },
    "short_description": "Michelin Bib Gourmand ramen shop famous for its spice-customizable Tantanmen (Dandan noodles).",
    "estimated_duration": "1 hour",
    "rating": 4.3,
    "review_count": 800,
    "min_budget": "¥1000"
  },
  {
    "name": "Mokkosu Honten",
    "region": "Kansai",
    "city": "Kobe",
    "prefecture": "Hyogo-ken",
    "neighborhood": "Okurayama",
    "category": "food",
    "coordinates": {
      "lat": 34.6855,
      "lng": 135.174
    },
    "short_description": "Kobe's soul food ramen; a tonkotsu-shoyu hybrid served with a mountain of green onions and chashu.",
    "estimated_duration": "45 mins",
    "rating": 4.0,
    "review_count": 2000,
    "min_budget": "¥900"
  },
  {
    "name": "Nagata Tank-suji",
    "region": "Kansai",
    "city": "Kobe",
    "prefecture": "Hyogo-ken",
    "neighborhood": "Sannomiya",
    "category": "food",
    "coordinates": {
      "lat": 34.6925,
      "lng": 135.1935
    },
    "short_description": "Specializes in 'Bokkake Sobameshi', a Kobe original dish of fried yakisoba and rice mixed with stewed beef tendon.",
    "estimated_duration": "1 hour",
    "rating": 4.2,
    "review_count": 700,
    "min_budget": "¥1000"
  },
  {
    "name": "Aomori",
    "region": "Kansai",
    "city": "Kobe",
    "prefecture": "Hyogo-ken",
    "neighborhood": "Nagata",
    "category": "food",
    "coordinates": {
      "lat": 34.6545,
      "lng": 135.1485
    },
    "short_description": "Authentic, deep-local spot in Nagata ward, arguably the best place for genuine Sobameshi.",
    "estimated_duration": "1 hour",
    "rating": 4.4,
    "review_count": 500,
    "min_budget": "¥1000"
  },
  {
    "name": "Tachibana",
    "region": "Kansai",
    "city": "Kobe",
    "prefecture": "Hyogo-ken",
    "neighborhood": "Sannomiya",
    "category": "food",
    "coordinates": {
      "lat": 34.6932,
      "lng": 135.1942
    },
    "short_description": "Famous for Akashiyaki (fluffy egg dumplings with octopus) served with a delicate dashi broth for dipping.",
    "estimated_duration": "45 mins",
    "rating": 4.1,
    "review_count": 800,
    "min_budget": "¥800"
  },
  {
    "name": "Uoshin Sannomiya",
    "region": "Kansai",
    "city": "Kobe",
    "prefecture": "Hyogo-ken",
    "neighborhood": "Sannomiya",
    "category": "food",
    "coordinates": {
      "lat": 34.6945,
      "lng": 135.192
    },
    "short_description": "Sushi restaurant known for its 'mega' toppings that are three times the normal size.",
    "estimated_duration": "1 hour",
    "rating": 4.2,
    "review_count": 1200,
    "min_budget": "¥3000"
  },
  {
    "name": "Hakutsuru Sake Brewery Museum",
    "region": "Kansai",
    "city": "Kobe",
    "prefecture": "Hyogo-ken",
    "neighborhood": "Nada",
    "category": "food",
    "coordinates": {
      "lat": 34.7105,
      "lng": 135.2635
    },
    "short_description": "Museum in a converted brew house offering free tastings of freshly brewed sake from the Nada district.",
    "estimated_duration": "1 hour",
    "rating": 4.2,
    "review_count": 2500,
    "min_budget": "Free"
  },
  {
    "name": "Kiku-Masamune Sake Brewery Museum",
    "region": "Kansai",
    "city": "Kobe",
    "prefecture": "Hyogo-ken",
    "neighborhood": "Nada",
    "category": "food",
    "coordinates": {
      "lat": 34.7125,
      "lng": 135.269
    },
    "short_description": "Historic sake brewery museum showcasing traditional tools and offering samples of their dry 'Karakuchi' sake.",
    "estimated_duration": "1 hour",
    "rating": 4.1,
    "review_count": 1200,
    "min_budget": "Free"
  },
  {
    "name": "Gaylord",
    "region": "Kansai",
    "city": "Kobe",
    "prefecture": "Hyogo-ken",
    "neighborhood": "Sannomiya",
    "category": "food",
    "coordinates": {
      "lat": 34.6918,
      "lng": 135.191
    },
    "short_description": "Kobe's oldest Indian restaurant, establishing the city's reputation for excellent international cuisine.",
    "estimated_duration": "1.5 hours",
    "rating": 4.3,
    "review_count": 600,
    "min_budget": "¥2000"
  },
  {
    "name": "Naan Inn",
    "region": "Kansai",
    "city": "Kobe",
    "prefecture": "Hyogo-ken",
    "neighborhood": "Kitano",
    "category": "food",
    "coordinates": {
      "lat": 34.6975,
      "lng": 135.1885
    },
    "short_description": "Popular Pakistani restaurant located near the Kobe Mosque, known for its authentic halal menu.",
    "estimated_duration": "1 hour",
    "rating": 4.2,
    "review_count": 800,
    "min_budget": "¥1500"
  },
  {
    "name": "Kobe Kitano Hotel Iguarek",
    "region": "Kansai",
    "city": "Kobe",
    "prefecture": "Hyogo-ken",
    "neighborhood": "Kitano",
    "category": "food",
    "coordinates": {
      "lat": 34.698,
      "lng": 135.1855
    },
    "short_description": "Famous for the 'World's Best Breakfast' created by chef Bernard Loiseau, served in a European courtyard setting.",
    "estimated_duration": "2 hours",
    "rating": 4.5,
    "review_count": 1000,
    "min_budget": "¥4000"
  },
  {
    "name": "Kitano Club",
    "region": "Kansai",
    "city": "Kobe",
    "prefecture": "Hyogo-ken",
    "neighborhood": "Kitano",
    "category": "food",
    "coordinates": {
      "lat": 34.7045,
      "lng": 135.188
    },
    "short_description": "Historic French restaurant on the hillside offering panoramic night views of Kobe city.",
    "estimated_duration": "2.5 hours",
    "rating": 4.4,
    "review_count": 400,
    "min_budget": "¥15000"
  },
  {
    "name": "Ca Marche",
    "region": "Kansai",
    "city": "Kobe",
    "prefecture": "Hyogo-ken",
    "neighborhood": "Kitano",
    "category": "food",
    "coordinates": {
      "lat": 34.6995,
      "lng": 135.186
    },
    "short_description": "Artisan bakery with a lovely terrace, famous for its hard breads and savory focaccia.",
    "estimated_duration": "30 mins",
    "rating": 4.4,
    "review_count": 600,
    "min_budget": "¥800"
  },
  {
    "name": "Isuzu Bakery",
    "region": "Kansai",
    "city": "Kobe",
    "prefecture": "Hyogo-ken",
    "neighborhood": "Sannomiya",
    "category": "food",
    "coordinates": {
      "lat": 34.695,
      "lng": 135.196
    },
    "short_description": "A local institution since 1946, beloved for its 'Trech' hard bread and curry buns.",
    "estimated_duration": "15 mins",
    "rating": 4.1,
    "review_count": 900,
    "min_budget": "¥400"
  },
  {
    "name": "Cafe Keshiperl",
    "region": "Kansai",
    "city": "Kobe",
    "prefecture": "Hyogo-ken",
    "neighborhood": "Sannomiya",
    "category": "food",
    "coordinates": {
      "lat": 34.6935,
      "lng": 135.197
    },
    "short_description": "Quiet, atmospheric cafe famous for its daily cheesecake selection and strict 'quiet' policy.",
    "estimated_duration": "1 hour",
    "rating": 4.5,
    "review_count": 400,
    "min_budget": "¥1000"
  },
  {
    "name": "Mamounia",
    "region": "Kansai",
    "city": "Kobe",
    "prefecture": "Hyogo-ken",
    "neighborhood": "Motomachi",
    "category": "food",
    "coordinates": {
      "lat": 34.6905,
      "lng": 135.1865
    },
    "short_description": "Stylish Moroccan-themed cafe popular for its visually stunning napolitan pasta and fruit omelet rice.",
    "estimated_duration": "1 hour",
    "rating": 4.2,
    "review_count": 600,
    "min_budget": "¥1500"
  },
  {
    "name": "Santica",
    "region": "Kansai",
    "city": "Kobe",
    "prefecture": "Hyogo-ken",
    "neighborhood": "Sannomiya",
    "category": "food",
    "coordinates": {
      "lat": 34.694,
      "lng": 135.195
    },
    "short_description": "Underground food street connecting Sannomiya stations, packed with bakeries, cafes, and sweet shops.",
    "estimated_duration": "1 hour",
    "rating": 4.0,
    "review_count": 3000,
    "min_budget": "¥1000"
  },
  {
    "name": "Gensai",
    "region": "Kansai",
    "city": "Kobe",
    "prefecture": "Hyogo-ken",
    "neighborhood": "Sannomiya",
    "category": "food",
    "coordinates": {
      "lat": 34.693,
      "lng": 135.1905
    },
    "short_description": "Refined kaiseki dining specializing in seasonal ingredients and Kobe beef in a private room setting.",
    "estimated_duration": "2 hours",
    "rating": 4.4,
    "review_count": 200,
    "min_budget": "¥8000"
  },
  {
    "name": "Ramen Taro Sannomiya",
    "region": "Kansai",
    "city": "Kobe",
    "prefecture": "Hyogo-ken",
    "neighborhood": "Sannomiya",
    "category": "food",
    "coordinates": {
      "lat": 34.6952,
      "lng": 135.1925
    },
    "short_description": "Local chain famous for its tomato ramen and free unlimited kimchi on the tables.",
    "estimated_duration": "45 mins",
    "rating": 3.9,
    "review_count": 1000,
    "min_budget": "¥900"
  },
  {
    "name": "Setsu",
    "region": "Kansai",
    "city": "Kobe",
    "prefecture": "Hyogo-ken",
    "neighborhood": "Kitano",
    "category": "food",
    "coordinates": {
      "lat": 34.6988,
      "lng": 135.1895
    },
    "short_description": "Exclusive steakhouse on Pearl Street offering a luxurious, intimate Kobe beef teppanyaki experience.",
    "estimated_duration": "2 hours",
    "rating": 4.6,
    "review_count": 300,
    "min_budget": "¥18000"
  },
  {
    "name": "Tor Road Steak Aoyama",
    "region": "Kansai",
    "city": "Kobe",
    "prefecture": "Hyogo-ken",
    "neighborhood": "Motomachi",
    "category": "food",
    "coordinates": {
      "lat": 34.6908,
      "lng": 135.186
    },
    "short_description": "Family-run steak restaurant operating since 1963, loved for its warm hospitality and reasonable prices.",
    "estimated_duration": "1.5 hours",
    "rating": 4.8,
    "review_count": 1100,
    "min_budget": "¥6000"
  },
  {
    "name": "Metimen",
    "region": "Kansai",
    "city": "Kobe",
    "prefecture": "Hyogo-ken",
    "neighborhood": "Sannomiya",
    "category": "food",
    "coordinates": {
      "lat": 34.692,
      "lng": 135.1965
    },
    "short_description": "Trendy mazesoba (soup-less ramen) shop where you mix rich toppings and oil with chewy noodles.",
    "estimated_duration": "45 mins",
    "rating": 4.2,
    "review_count": 500,
    "min_budget": "¥1000"
  },
  {
    "name": "Kobe Hishigan",
    "region": "Kansai",
    "city": "Kobe",
    "prefecture": "Hyogo-ken",
    "neighborhood": "Motomachi",
    "category": "food",
    "coordinates": {
      "lat": 34.6882,
      "lng": 135.1855
    },
    "short_description": "Specialty shop selling charcoal-grilled unagi (eel) over rice, a local favorite for generations.",
    "estimated_duration": "1 hour",
    "rating": 4.3,
    "review_count": 400,
    "min_budget": "¥3500"
  },
  {
    "name": "Sake Baru",
    "region": "Kansai",
    "city": "Kobe",
    "prefecture": "Hyogo-ken",
    "neighborhood": "Sannomiya",
    "category": "food",
    "coordinates": {
      "lat": 34.6942,
      "lng": 135.1932
    },
    "short_description": "Stylish standing bar featuring a curated selection of sakes from Hyogo prefecture and small plates.",
    "estimated_duration": "1 hour",
    "rating": 4.1,
    "review_count": 200,
    "min_budget": "¥2000"
  },
  {
    "name": "Gaen Shuka",
    "region": "Kansai",
    "city": "Kobe",
    "prefecture": "Hyogo-ken",
    "neighborhood": "Nankinmachi",
    "category": "food",
    "coordinates": {
      "lat": 34.6877,
      "lng": 135.1888
    },
    "short_description": "Prominent Cantonese restaurant in Chinatown known for its lavish interior and quality dim sum.",
    "estimated_duration": "1.5 hours",
    "rating": 4.0,
    "review_count": 800,
    "min_budget": "¥4000"
  },
  {
    "name": "Mon",
    "region": "Kansai",
    "city": "Kobe",
    "prefecture": "Hyogo-ken",
    "neighborhood": "Sannomiya",
    "category": "food",
    "coordinates": {
      "lat": 34.6922,
      "lng": 135.1915
    },
    "short_description": "Retro Yoshoku restaurant established in 1936, famous for its beef cutlet sandwich and omurice.",
    "estimated_duration": "1 hour",
    "rating": 4.3,
    "review_count": 600,
    "min_budget": "¥1800"
  }
]
