[
  {
    "name": "Kikunoi Honten",
    "region": "Kansai",
    "city": "Kyoto",
    "neighborhood": "Higashiyama",
    "category": "food",
    "coordinates": {
      "lat": 34.9987,
      "lng": 135.7812
    },
    "short_description": "3-Michelin star kaiseki restaurant with over 100 years of history, known for seasonal multi-course traditional Kyoto cuisine",
    "estimated_duration": "2-3 hours",
    "rating": 4.7,
    "min_budget": "¥20000"
  },
  {
    "name": "Hyotei",
    "region": "Kansai",
    "city": "Kyoto",
    "neighborhood": "Nanzenji",
    "category": "food",
    "coordinates": {
      "lat": 35.0108,
      "lng": 135.792
    },
    "short_description": "400-year-old kaiseki restaurant originating as a tea house, awarded 3 Michelin stars for 15 consecutive years",
    "estimated_duration": "2-3 hours",
    "rating": 4.5,
    "min_budget": "¥25000"
  },
  {
    "name": "Nishiki Market",
    "region": "Kansai",
    "city": "Kyoto",
    "neighborhood": "Nakagyo",
    "category": "food",
    "coordinates": {
      "lat": 35.005,
      "lng": 135.7649
    },
    "short_description": "Kyoto's Kitchen - 400-year-old covered market with 130+ stalls selling fresh seafood, pickles, tofu, street food, and local specialties",
    "estimated_duration": "1.5-2 hours",
    "rating": 4.4,
    "min_budget": "¥1000"
  },
  {
    "name": "Ramen Touhichi",
    "region": "Kansai",
    "city": "Kyoto",
    "neighborhood": "Kitaku",
    "category": "food",
    "coordinates": {
      "lat": 35.0436,
      "lng": 135.7285
    },
    "short_description": "Michelin Bib Gourmand ramen shop famous for chicken shoyu ramen using high-quality local Tanda and Nagoya Kochin chicken",
    "estimated_duration": "1 hour",
    "rating": 4.3,
    "min_budget": "¥850"
  },
  {
    "name": "Gion Duck Noodles",
    "region": "Kansai",
    "city": "Kyoto",
    "neighborhood": "Gion",
    "category": "food",
    "coordinates": {
      "lat": 35.0035,
      "lng": 135.774
    },
    "short_description": "Unique duck ramen shop with emoji menu, featuring French-trained chef using German rye wheat noodles and rich duck broth",
    "estimated_duration": "1 hour",
    "rating": 4.5,
    "min_budget": "¥1200"
  },
  {
    "name": "Kobushi Ramen",
    "region": "Kansai",
    "city": "Kyoto",
    "neighborhood": "Shimogyo",
    "category": "food",
    "coordinates": {
      "lat": 34.9856,
      "lng": 135.7509
    },
    "short_description": "Bib Gourmand ramen near Kyoto Station featuring rare duck and nodoguro (blackthroat sea perch) combination broth",
    "estimated_duration": "1 hour",
    "rating": 4.2,
    "min_budget": "¥900"
  },
  {
    "name": "Gion Kappa",
    "region": "Kansai",
    "city": "Kyoto",
    "neighborhood": "Gion",
    "category": "food",
    "coordinates": {
      "lat": 35.0036,
      "lng": 135.7752
    },
    "short_description": "Popular foreigner-friendly izakaya in the geisha district serving sushi, grilled meats, sake and traditional small plates",
    "estimated_duration": "1.5-2 hours",
    "rating": 4.3,
    "min_budget": "¥2500"
  },
  {
    "name": "Pontocho Masuda",
    "region": "Kansai",
    "city": "Kyoto",
    "neighborhood": "Pontocho",
    "category": "food",
    "coordinates": {
      "lat": 35.0063,
      "lng": 135.7705
    },
    "short_description": "Traditional izakaya in Pontocho serving authentic Obanzai (Kyoto home-style cuisine) including vinegared mackerel and duck",
    "estimated_duration": "1.5-2 hours",
    "rating": 4.4,
    "min_budget": "¥3000"
  },
  {
    "name": "Tempura Yoshikawa",
    "region": "Kansai",
    "city": "Kyoto",
    "neighborhood": "Nakagyo",
    "category": "food",
    "coordinates": {
      "lat": 35.0101,
      "lng": 135.7622
    },
    "short_description": "Kyoto's finest tempura in a beautiful traditional wooden building with garden, featuring an 11-seat counter and refined kaiseki-style service",
    "estimated_duration": "1.5-2 hours",
    "rating": 4.6,
    "min_budget": "¥8000"
  },
  {
    "name": "Tempura Kyoboshi",
    "region": "Kansai",
    "city": "Kyoto",
    "neighborhood": "Gion",
    "category": "food",
    "coordinates": {
      "lat": 35.0031,
      "lng": 135.7755
    },
    "short_description": "2-Michelin star tempura restaurant with recipes passed down for 3 generations, serving light and crispy seasonal tempura",
    "estimated_duration": "1.5-2 hours",
    "rating": 4.7,
    "min_budget": "¥15000"
  },
  {
    "name": "Shinpuku Saikan",
    "region": "Kansai",
    "city": "Kyoto",
    "neighborhood": "Shimogyo",
    "category": "food",
    "coordinates": {
      "lat": 34.9875,
      "lng": 135.7586
    },
    "short_description": "Historic ramen shop near Kyoto Station specializing in rich soy sauce (shoyu) ramen - a local institution since 1938",
    "estimated_duration": "1 hour",
    "rating": 4.1,
    "min_budget": "¥750"
  },
  {
    "name": "Gion Yuki",
    "region": "Kansai",
    "city": "Kyoto",
    "neighborhood": "Gion",
    "category": "food",
    "coordinates": {
      "lat": 35.0028,
      "lng": 135.7761
    },
    "short_description": "Cozy traditional izakaya in the heart of Gion with English menu, offering wide range of small plates and excellent sake selection",
    "estimated_duration": "1.5-2 hours",
    "rating": 4.3,
    "min_budget": "¥2500"
  },
  {
    "name": "Towzen",
    "region": "Kansai",
    "city": "Kyoto",
    "neighborhood": "Nakagyo",
    "category": "food",
    "coordinates": {
      "lat": 35.0044,
      "lng": 135.7581
    },
    "short_description": "100% plant-based ramen restaurant with tatami seating, famous for creamy soy milk ramen - great for vegetarians and vegans",
    "estimated_duration": "1 hour",
    "rating": 4.4,
    "min_budget": "¥1000"
  },
  {
    "name": "Kyoto Ramen Koji",
    "region": "Kansai",
    "city": "Kyoto",
    "neighborhood": "Shimogyo",
    "category": "food",
    "coordinates": {
      "lat": 34.9858,
      "lng": 135.7588
    },
    "short_description": "Ramen street on 10th floor of Kyoto Station featuring 9 regional ramen styles from across Japan including Hakata and Sapporo",
    "estimated_duration": "1-1.5 hours",
    "rating": 4,
    "min_budget": "¥850"
  },
  {
    "name": "Pontocho Alley",
    "region": "Kansai",
    "city": "Kyoto",
    "neighborhood": "Pontocho",
    "category": "food",
    "coordinates": {
      "lat": 35.0068,
      "lng": 135.7703
    },
    "short_description": "Atmospheric narrow alley along Kamogawa River with traditional izakayas, restaurants and bars - summer kawadoko riverside dining available",
    "estimated_duration": "2-3 hours",
    "rating": 4.5,
    "min_budget": "¥3000"
  }
]
