[
  {
    "name": "Yakumoan",
    "region": "Chugoku",
    "city": "Matsue",
    "prefecture": "Shimane-ken",
    "neighborhood": "Kitaboricho",
    "category": "food",
    "coordinates": {
      "lat": 35.4765,
      "lng": 133.0515
    },
    "short_description": "Famous Izumo soba restaurant located in a former samurai residence with a beautiful Japanese garden.",
    "estimated_duration": "1 hour",
    "rating": 4.4,
    "review_count": 1200,
    "min_budget": "¥1000"
  },
  {
    "name": "Kawakyo",
    "region": "Chugoku",
    "city": "Matsue",
    "prefecture": "Shimane-ken",
    "neighborhood": "Suetsuguhonmachi",
    "category": "food",
    "coordinates": {
      "lat": 35.4725,
      "lng": 133.055
    },
    "short_description": "Renowned local specialist serving the 'Seven Delicacies of Lake Shinji', particularly famous for shijimi clam dishes.",
    "estimated_duration": "1.5 hours",
    "rating": 4.5,
    "review_count": 500,
    "min_budget": "¥4000"
  },
  {
    "name": "Kamiyo Soba",
    "region": "Chugoku",
    "city": "Matsue",
    "prefecture": "Shimane-ken",
    "neighborhood": "Okudanicho",
    "category": "food",
    "coordinates": {
      "lat": 35.478,
      "lng": 133.051
    },
    "short_description": "Historic soba shop founded in 1952, known for its chewy, fragrant noodles made from stone-ground buckwheat.",
    "estimated_duration": "1 hour",
    "rating": 4.2,
    "review_count": 800,
    "min_budget": "¥1000"
  },
  {
    "name": "Izumo Soba Kigaru",
    "region": "Chugoku",
    "city": "Matsue",
    "prefecture": "Shimane-ken",
    "neighborhood": "Tonomachi",
    "category": "food",
    "coordinates": {
      "lat": 35.4745,
      "lng": 133.053
    },
    "short_description": "Popular local soba spot near Matsue Castle offering affordable and authentic Warigo soba.",
    "estimated_duration": "45 mins",
    "rating": 4.1,
    "review_count": 600,
    "min_budget": "¥800"
  },
  {
    "name": "Funatsu",
    "region": "Chugoku",
    "city": "Matsue",
    "prefecture": "Shimane-ken",
    "neighborhood": "Sotonakabaracho",
    "category": "food",
    "coordinates": {
      "lat": 35.474,
      "lng": 133.045
    },
    "short_description": "Specializes in Juwari (100% buckwheat) soba, offering a robust flavor and aroma favored by connoisseurs.",
    "estimated_duration": "1 hour",
    "rating": 4.3,
    "review_count": 400,
    "min_budget": "¥1200"
  },
  {
    "name": "Kiharu Tea Room",
    "region": "Chugoku",
    "city": "Matsue",
    "prefecture": "Shimane-ken",
    "neighborhood": "Tonomachi",
    "category": "food",
    "coordinates": {
      "lat": 35.4755,
      "lng": 133.0535
    },
    "short_description": "Located inside the Matsue History Museum, featuring modern wagashi creations by a master confectioner.",
    "estimated_duration": "1 hour",
    "rating": 4.6,
    "review_count": 500,
    "min_budget": "¥800"
  },
  {
    "name": "Unagi-dokoro Oga",
    "region": "Chugoku",
    "city": "Matsue",
    "prefecture": "Shimane-ken",
    "neighborhood": "Nishichamachi",
    "category": "food",
    "coordinates": {
      "lat": 35.468,
      "lng": 133.058
    },
    "short_description": "The premier unagi restaurant in Matsue, serving Kansai-style grilled eel with a crispy exterior.",
    "estimated_duration": "1.5 hours",
    "rating": 4.4,
    "review_count": 600,
    "min_budget": "¥4000"
  },
  {
    "name": "Ryotei Minami",
    "region": "Chugoku",
    "city": "Matsue",
    "prefecture": "Shimane-ken",
    "neighborhood": "Suetsuguhonmachi",
    "category": "food",
    "coordinates": {
      "lat": 35.4715,
      "lng": 133.056
    },
    "short_description": "Famous for its 'Tai-meshi' (Sea Bream Rice), a traditional dish where you mix toppings and broth over rice.",
    "estimated_duration": "1.5 hours",
    "rating": 4.3,
    "review_count": 400,
    "min_budget": "¥2500"
  },
  {
    "name": "Oden Sho",
    "region": "Chugoku",
    "city": "Matsue",
    "prefecture": "Shimane-ken",
    "neighborhood": "Suetsuguhonmachi",
    "category": "food",
    "coordinates": {
      "lat": 35.472,
      "lng": 133.055
    },
    "short_description": "A classic spot for 'Matsue Oden', characterized by its large ingredients and flying fish (ago) dashi.",
    "estimated_duration": "1.5 hours",
    "rating": 4.2,
    "review_count": 300,
    "min_budget": "¥2000"
  },
  {
    "name": "Saiundo Honten",
    "region": "Chugoku",
    "city": "Matsue",
    "prefecture": "Shimane-ken",
    "neighborhood": "Tenjinmachi",
    "category": "food",
    "coordinates": {
      "lat": 35.4685,
      "lng": 133.054
    },
    "short_description": "One of Matsue's oldest wagashi shops, famous for 'Wakakusa', a green dainty favored by feudal lords.",
    "estimated_duration": "45 mins",
    "rating": 4.4,
    "review_count": 400,
    "min_budget": "¥500"
  },
  {
    "name": "Meimei-an Tea House",
    "region": "Chugoku",
    "city": "Matsue",
    "prefecture": "Shimane-ken",
    "neighborhood": "Kitaboricho",
    "category": "food",
    "coordinates": {
      "lat": 35.477,
      "lng": 133.0505
    },
    "short_description": "Historic tea house with a panoramic view of Matsue Castle, perfect for enjoying matcha and seasonal sweets.",
    "estimated_duration": "1 hour",
    "rating": 4.5,
    "review_count": 300,
    "min_budget": "¥800"
  },
  {
    "name": "Yakiniku Ginzan Wagyu",
    "region": "Chugoku",
    "city": "Matsue",
    "prefecture": "Shimane-ken",
    "neighborhood": "Tonomachi",
    "category": "food",
    "coordinates": {
      "lat": 35.4735,
      "lng": 133.054
    },
    "short_description": "Specializes in high-quality Shimane Wagyu beef, grilled at your table in the Karakoro Art Studio complex.",
    "estimated_duration": "1.5 hours",
    "rating": 4.6,
    "review_count": 100,
    "min_budget": "¥5000"
  },
  {
    "name": "Kuretake Zushi",
    "region": "Chugoku",
    "city": "Matsue",
    "prefecture": "Shimane-ken",
    "neighborhood": "Higashihonmachi",
    "category": "food",
    "coordinates": {
      "lat": 35.4705,
      "lng": 133.06
    },
    "short_description": "Top-tier sushi restaurant offering fresh local seafood like nodoguro (blackthroat seaperch) and crab.",
    "estimated_duration": "1.5 hours",
    "rating": 4.3,
    "review_count": 200,
    "min_budget": "¥6000"
  },
  {
    "name": "Izumo Soba Tataraya",
    "region": "Chugoku",
    "city": "Matsue",
    "prefecture": "Shimane-ken",
    "neighborhood": "Matsue Station",
    "category": "food",
    "coordinates": {
      "lat": 35.4642,
      "lng": 133.0635
    },
    "short_description": "Conveniently located in Matsue Station, serving reliable and tasty Izumo soba sets for travelers.",
    "estimated_duration": "45 mins",
    "rating": 3.8,
    "review_count": 300,
    "min_budget": "¥1000"
  },
  {
    "name": "Cafe Terrasse LinQ",
    "region": "Chugoku",
    "city": "Matsue",
    "prefecture": "Shimane-ken",
    "neighborhood": "Matsue Station",
    "category": "food",
    "coordinates": {
      "lat": 35.465,
      "lng": 133.062
    },
    "short_description": "Modern dining cafe with a relaxed vibe, popular for its lunch plates and evening cocktails.",
    "estimated_duration": "1 hour",
    "rating": 4.0,
    "review_count": 150,
    "min_budget": "¥1200"
  },
  {
    "name": "Furyudo",
    "region": "Chugoku",
    "city": "Matsue",
    "prefecture": "Shimane-ken",
    "neighborhood": "Teramachi",
    "category": "food",
    "coordinates": {
      "lat": 35.466,
      "lng": 133.056
    },
    "short_description": "Famed wagashi shop known for 'Yamakawa', a red and white Rakugan treat considered one of Japan's top three sweets.",
    "estimated_duration": "30 mins",
    "rating": 4.3,
    "review_count": 200,
    "min_budget": "¥500"
  },
  {
    "name": "Izakaya Kumakichi",
    "region": "Chugoku",
    "city": "Matsue",
    "prefecture": "Shimane-ken",
    "neighborhood": "Suetsuguhonmachi",
    "category": "food",
    "coordinates": {
      "lat": 35.4722,
      "lng": 133.0555
    },
    "short_description": "Lively izakaya in the Kyomise district offering a wide range of local sake and Shimane seafood.",
    "estimated_duration": "2 hours",
    "rating": 4.1,
    "review_count": 150,
    "min_budget": "¥3000"
  },
  {
    "name": "Sky View Candle",
    "region": "Chugoku",
    "city": "Matsue",
    "prefecture": "Shimane-ken",
    "neighborhood": "Tonomachi",
    "category": "food",
    "coordinates": {
      "lat": 35.474,
      "lng": 133.052
    },
    "short_description": "Restaurant offering Western cuisine with stunning panoramic views of Lake Shinji, especially at sunset.",
    "estimated_duration": "1.5 hours",
    "rating": 4.0,
    "review_count": 100,
    "min_budget": "¥2500"
  },
  {
    "name": "Hamayaki Sakaba Minato",
    "region": "Chugoku",
    "city": "Matsue",
    "prefecture": "Shimane-ken",
    "neighborhood": "Matsue Station",
    "category": "food",
    "coordinates": {
      "lat": 35.465,
      "lng": 133.064
    },
    "short_description": "Fun, interactive dining where you grill your own fresh seafood (hamayaki) right at your table.",
    "estimated_duration": "1.5 hours",
    "rating": 4.1,
    "review_count": 200,
    "min_budget": "¥3000"
  },
  {
    "name": "Toriya Ebisu",
    "region": "Chugoku",
    "city": "Matsue",
    "prefecture": "Shimane-ken",
    "neighborhood": "Matsue Station",
    "category": "food",
    "coordinates": {
      "lat": 35.4645,
      "lng": 133.063
    },
    "short_description": "Specializes in chicken dishes and yakitori, sourcing fresh poultry direct from Miyazaki.",
    "estimated_duration": "1.5 hours",
    "rating": 3.9,
    "review_count": 150,
    "min_budget": "¥2500"
  },
  {
    "name": "Gurunavi",
    "region": "Chugoku",
    "city": "Matsue",
    "prefecture": "Shimane-ken",
    "neighborhood": "Higashihonmachi",
    "category": "food",
    "coordinates": {
      "lat": 35.471,
      "lng": 133.061
    },
    "short_description": "Local dining spot offering a variety of Shimane specialties in a relaxed, casual setting.",
    "estimated_duration": "1 hour",
    "rating": 4.0,
    "review_count": 100,
    "min_budget": "¥2000"
  },
  {
    "name": "Cafe Kubel",
    "region": "Chugoku",
    "city": "Matsue",
    "prefecture": "Shimane-ken",
    "neighborhood": "Shinjiko Onsen",
    "category": "food",
    "coordinates": {
      "lat": 35.4695,
      "lng": 133.046
    },
    "short_description": "Cozy home-roasted coffee shop near the onsen area, perfect for a quiet break.",
    "estimated_duration": "45 mins",
    "rating": 4.2,
    "review_count": 80,
    "min_budget": "¥600"
  },
  {
    "name": "Racine",
    "region": "Chugoku",
    "city": "Matsue",
    "prefecture": "Shimane-ken",
    "neighborhood": "Shinjiko Onsen",
    "category": "food",
    "coordinates": {
      "lat": 35.469,
      "lng": 133.045
    },
    "short_description": "French-inspired cafe offering elegant desserts and lunch with beautiful views of the lake.",
    "estimated_duration": "1 hour",
    "rating": 4.3,
    "review_count": 120,
    "min_budget": "¥1500"
  },
  {
    "name": "Yuushien Garden Restaurant",
    "region": "Chugoku",
    "city": "Matsue",
    "prefecture": "Shimane-ken",
    "neighborhood": "Daikonshima",
    "category": "food",
    "coordinates": {
      "lat": 35.503,
      "lng": 133.195
    },
    "short_description": "Located within a stunning peony garden, serving kaiseki meals featuring ginseng and eel.",
    "estimated_duration": "1.5 hours",
    "rating": 4.2,
    "review_count": 300,
    "min_budget": "¥2500"
  },
  {
    "name": "Sanin Sakaba Kamiari",
    "region": "Chugoku",
    "city": "Matsue",
    "prefecture": "Shimane-ken",
    "neighborhood": "Matsue Station",
    "category": "food",
    "coordinates": {
      "lat": 35.464,
      "lng": 133.065
    },
    "short_description": "Popular izakaya near the station serving a wide array of local San'in region dishes and sake.",
    "estimated_duration": "1.5 hours",
    "rating": 4.0,
    "review_count": 100,
    "min_budget": "¥3500"
  },
  {
    "name": "Usagiya",
    "region": "Chugoku",
    "city": "Matsue",
    "prefecture": "Shimane-ken",
    "neighborhood": "Matsue Station",
    "category": "food",
    "coordinates": {
      "lat": 35.4635,
      "lng": 133.062
    },
    "short_description": "Specialty shop pairing crispy gyoza with refreshing lemon sours, a hit with the local crowd.",
    "estimated_duration": "1 hour",
    "rating": 4.1,
    "review_count": 150,
    "min_budget": "¥2000"
  },
  {
    "name": "Steakhouse Wada",
    "region": "Chugoku",
    "city": "Matsue",
    "prefecture": "Shimane-ken",
    "neighborhood": "Higashihonmachi",
    "category": "food",
    "coordinates": {
      "lat": 35.47,
      "lng": 133.06
    },
    "short_description": "Old-school steakhouse famous for its tender Shimane Wagyu steaks and retro atmosphere.",
    "estimated_duration": "1.5 hours",
    "rating": 4.4,
    "review_count": 200,
    "min_budget": "¥8000"
  },
  {
    "name": "Scarab",
    "region": "Chugoku",
    "city": "Matsue",
    "prefecture": "Shimane-ken",
    "neighborhood": "Gakuen",
    "category": "food",
    "coordinates": {
      "lat": 35.485,
      "lng": 133.058
    },
    "short_description": "Stylish tea cafe offering a large selection of teas and modern sweets in a relaxing space.",
    "estimated_duration": "1 hour",
    "rating": 4.3,
    "review_count": 150,
    "min_budget": "¥1000"
  },
  {
    "name": "Tamaki Hamanogi",
    "region": "Chugoku",
    "city": "Matsue",
    "prefecture": "Shimane-ken",
    "neighborhood": "Hamanogi",
    "category": "food",
    "coordinates": {
      "lat": 35.455,
      "lng": 133.055
    },
    "short_description": "Family-friendly udon and soba restaurant loved for its handmade noodles and hearty sets.",
    "estimated_duration": "1 hour",
    "rating": 4.0,
    "review_count": 300,
    "min_budget": "¥1000"
  },
  {
    "name": "Wasabi",
    "region": "Chugoku",
    "city": "Matsue",
    "prefecture": "Shimane-ken",
    "neighborhood": "Matsue Station",
    "category": "food",
    "coordinates": {
      "lat": 35.4648,
      "lng": 133.0625
    },
    "short_description": "Upscale izakaya featuring private rooms and high-quality seafood and pork shabu-shabu.",
    "estimated_duration": "2 hours",
    "rating": 4.1,
    "review_count": 100,
    "min_budget": "¥4000"
  },
  {
    "name": "Nakamura Chaen",
    "region": "Chugoku",
    "city": "Matsue",
    "prefecture": "Shimane-ken",
    "neighborhood": "Tenjinmachi",
    "category": "food",
    "coordinates": {
      "lat": 35.467,
      "lng": 133.055
    },
    "short_description": "Historic tea merchant selling high-grade matcha and loose leaf teas, essential to Matsue's tea culture.",
    "estimated_duration": "30 mins",
    "rating": 4.5,
    "review_count": 100,
    "min_budget": "¥1000"
  },
  {
    "name": "Sumomo Bakery",
    "region": "Chugoku",
    "city": "Matsue",
    "prefecture": "Shimane-ken",
    "neighborhood": "Higashitsuda",
    "category": "food",
    "coordinates": {
      "lat": 35.458,
      "lng": 133.075
    },
    "short_description": "Popular bakery offering a wide variety of freshly baked breads at very affordable prices.",
    "estimated_duration": "20 mins",
    "rating": 4.2,
    "review_count": 200,
    "min_budget": "¥500"
  },
  {
    "name": "Pasta Cafe Dining Bar Borutiche",
    "region": "Chugoku",
    "city": "Matsue",
    "prefecture": "Shimane-ken",
    "neighborhood": "Matsue Station",
    "category": "food",
    "coordinates": {
      "lat": 35.464,
      "lng": 133.061
    },
    "short_description": "Casual dining bar known for its excellent pasta dishes and welcoming atmosphere.",
    "estimated_duration": "1 hour",
    "rating": 4.0,
    "review_count": 100,
    "min_budget": "¥1500"
  },
  {
    "name": "Gessho-ji Temple",
    "region": "Chugoku",
    "city": "Matsue",
    "prefecture": "Shimane-ken",
    "neighborhood": "Sotonakabaracho",
    "category": "food",
    "coordinates": {
      "lat": 35.478,
      "lng": 133.042
    },
    "short_description": "Atmospheric family temple of the Matsudaira clan where you can enjoy matcha in a serene garden setting.",
    "estimated_duration": "45 mins",
    "rating": 4.4,
    "review_count": 200,
    "min_budget": "¥500"
  },
  {
    "name": "Shimane Local Products Center",
    "region": "Chugoku",
    "city": "Matsue",
    "prefecture": "Shimane-ken",
    "neighborhood": "Tonomachi",
    "category": "food",
    "coordinates": {
      "lat": 35.4745,
      "lng": 133.051
    },
    "short_description": "The best place to find all of Shimane's food souvenirs, including sake, wagashi, and seafood products.",
    "estimated_duration": "45 mins",
    "rating": 4.0,
    "review_count": 300,
    "min_budget": "¥1000"
  },
  {
    "name": "Karakoro Art Studio",
    "region": "Chugoku",
    "city": "Matsue",
    "prefecture": "Shimane-ken",
    "neighborhood": "Tonomachi",
    "category": "food",
    "coordinates": {
      "lat": 35.473,
      "lng": 133.054
    },
    "short_description": "A cultural complex housed in a former bank, offering wagashi-making workshops and a food hall.",
    "estimated_duration": "1 hour",
    "rating": 4.1,
    "review_count": 400,
    "min_budget": "¥1500"
  },
  {
    "name": "Cafe & Bar FRANC",
    "region": "Chugoku",
    "city": "Matsue",
    "prefecture": "Shimane-ken",
    "neighborhood": "Matsue Station",
    "category": "food",
    "coordinates": {
      "lat": 35.4655,
      "lng": 133.063
    },
    "short_description": "Stylish spot offering Italian-French casual dining, crepes, and a good selection of drinks.",
    "estimated_duration": "1 hour",
    "rating": 4.0,
    "review_count": 80,
    "min_budget": "¥1500"
  },
  {
    "name": "Italian Kitchen VANSAN",
    "region": "Chugoku",
    "city": "Matsue",
    "prefecture": "Shimane-ken",
    "neighborhood": "Chidoricho",
    "category": "food",
    "coordinates": {
      "lat": 35.47,
      "lng": 133.048
    },
    "short_description": "Trendy Italian restaurant using fresh ingredients for its pasta and pizza; popular for lunch.",
    "estimated_duration": "1 hour",
    "rating": 4.0,
    "review_count": 100,
    "min_budget": "¥1500"
  },
  {
    "name": "Kyushu Jiman",
    "region": "Chugoku",
    "city": "Matsue",
    "prefecture": "Shimane-ken",
    "neighborhood": "Matsue Station",
    "category": "food",
    "coordinates": {
      "lat": 35.464,
      "lng": 133.062
    },
    "short_description": "Izakaya specializing in Kyushu cuisine like motsunabe and gyoza, with private rooms available.",
    "estimated_duration": "1.5 hours",
    "rating": 3.9,
    "review_count": 150,
    "min_budget": "¥3000"
  },
  {
    "name": "Faber",
    "region": "Chugoku",
    "city": "Matsue",
    "prefecture": "Shimane-ken",
    "neighborhood": "Matsue Station",
    "category": "food",
    "coordinates": {
      "lat": 35.463,
      "lng": 133.061
    },
    "short_description": "Unique 'smoked food' tavern offering smoked meats, cheeses, and other creative dishes.",
    "estimated_duration": "1.5 hours",
    "rating": 4.1,
    "review_count": 80,
    "min_budget": "¥3500"
  },
  {
    "name": "Yakumo",
    "region": "Chugoku",
    "city": "Matsue",
    "prefecture": "Shimane-ken",
    "neighborhood": "Kitaboricho",
    "category": "food",
    "coordinates": {
      "lat": 35.476,
      "lng": 133.051
    },
    "short_description": "Elegant restaurant in the samurai district serving local kaiseki cuisine in a traditional setting.",
    "estimated_duration": "2 hours",
    "rating": 4.3,
    "review_count": 200,
    "min_budget": "¥5000"
  },
  {
    "name": "Capina Coffee",
    "region": "Chugoku",
    "city": "Matsue",
    "prefecture": "Shimane-ken",
    "neighborhood": "Gakuen",
    "category": "food",
    "coordinates": {
      "lat": 35.48,
      "lng": 133.06
    },
    "short_description": "Local specialty coffee roaster known for its high-quality beans and relaxing cafe atmosphere.",
    "estimated_duration": "45 mins",
    "rating": 4.2,
    "review_count": 100,
    "min_budget": "¥700"
  },
  {
    "name": "Restaurant Mosoro",
    "region": "Chugoku",
    "city": "Matsue",
    "prefecture": "Shimane-ken",
    "neighborhood": "Matsue Station",
    "category": "food",
    "coordinates": {
      "lat": 35.465,
      "lng": 133.06
    },
    "short_description": "Restaurant inside the Excel Hotel Tokyu offering expansive buffets and Western dishes.",
    "estimated_duration": "1.5 hours",
    "rating": 3.9,
    "review_count": 150,
    "min_budget": "¥2000"
  },
  {
    "name": "Pantry",
    "region": "Chugoku",
    "city": "Matsue",
    "prefecture": "Shimane-ken",
    "neighborhood": "Hamanogi",
    "category": "food",
    "coordinates": {
      "lat": 35.45,
      "lng": 133.05
    },
    "short_description": "Beloved local bakery known for its rustic, hearty breads and pastries.",
    "estimated_duration": "15 mins",
    "rating": 4.1,
    "review_count": 100,
    "min_budget": "¥400"
  },
  {
    "name": "Wien",
    "region": "Chugoku",
    "city": "Matsue",
    "prefecture": "Shimane-ken",
    "neighborhood": "Tonomachi",
    "category": "food",
    "coordinates": {
      "lat": 35.473,
      "lng": 133.053
    },
    "short_description": "Classic Viennese-style coffee house offering siphon coffee and traditional cakes.",
    "estimated_duration": "1 hour",
    "rating": 4.0,
    "review_count": 120,
    "min_budget": "¥800"
  }
]
