[
  {
    "name": "Goshiki Honten",
    "region": "Shikoku",
    "city": "Matsuyama",
    "prefecture": "Ehime-ken",
    "neighborhood": "Sanbancho",
    "category": "food",
    "coordinates": {
      "lat": 33.8395,
      "lng": 132.7658
    },
    "short_description": "Famous for Matsuyama-style Tai-meshi (sea bream cooked with rice) and five-colored somen noodles.",
    "estimated_duration": "1-1.5 hours",
    "rating": 4.1,
    "review_count": 1800,
    "min_budget": "¥1500"
  },
  {
    "name": "Ganso Uwajima Taimeshi Kadoya",
    "region": "Shikoku",
    "city": "Matsuyama",
    "prefecture": "Ehime-ken",
    "neighborhood": "Okaido",
    "category": "food",
    "coordinates": {
      "lat": 33.8402,
      "lng": 132.7665
    },
    "short_description": "Specializes in Uwajima-style Tai-meshi, where raw sea bream sashimi is dipped in a raw egg sauce.",
    "estimated_duration": "1 hour",
    "rating": 4.2,
    "review_count": 1200,
    "min_budget": "¥2000"
  },
  {
    "name": "Kotori",
    "region": "Shikoku",
    "city": "Matsuyama",
    "prefecture": "Ehime-ken",
    "neighborhood": "Minatomachi",
    "category": "food",
    "coordinates": {
      "lat": 33.8368,
      "lng": 132.7635
    },
    "short_description": "Legendary shop serving Nabeyaki Udon in aluminum pots with a sweet, nostalgic broth.",
    "estimated_duration": "30-45 mins",
    "rating": 4.3,
    "review_count": 2100,
    "min_budget": "¥700"
  },
  {
    "name": "Asahi",
    "region": "Shikoku",
    "city": "Matsuyama",
    "prefecture": "Ehime-ken",
    "neighborhood": "Minatomachi",
    "category": "food",
    "coordinates": {
      "lat": 33.8372,
      "lng": 132.7638
    },
    "short_description": "Kotori's historic rival, serving a slightly sweeter Nabeyaki Udon in a retro setting.",
    "estimated_duration": "30-45 mins",
    "rating": 4.2,
    "review_count": 1900,
    "min_budget": "¥700"
  },
  {
    "name": "Hi no De",
    "region": "Shikoku",
    "city": "Matsuyama",
    "prefecture": "Ehime-ken",
    "neighborhood": "Mitsuhama",
    "category": "food",
    "coordinates": {
      "lat": 33.8585,
      "lng": 132.715
    },
    "short_description": "The go-to spot for Mitsuhama-yaki, a local folded savory pancake with noodles and beef fat.",
    "estimated_duration": "45 mins - 1 hour",
    "rating": 4.1,
    "review_count": 800,
    "min_budget": "¥800"
  },
  {
    "name": "Taimeshi Akiyoshi",
    "region": "Shikoku",
    "city": "Matsuyama",
    "prefecture": "Ehime-ken",
    "neighborhood": "Okaido",
    "category": "food",
    "coordinates": {
      "lat": 33.841,
      "lng": 132.767
    },
    "short_description": "Offers both Matsuyama and Uwajima styles of Tai-meshi, perfect for comparing the two.",
    "estimated_duration": "1 hour",
    "rating": 4.0,
    "review_count": 900,
    "min_budget": "¥1800"
  },
  {
    "name": "Dogo no Machiya",
    "region": "Shikoku",
    "city": "Matsuyama",
    "prefecture": "Ehime-ken",
    "neighborhood": "Dogo Onsen",
    "category": "food",
    "coordinates": {
      "lat": 33.8515,
      "lng": 132.7858
    },
    "short_description": "Stylish cafe in a renovated old house serving gourmet burgers and cakes in the onsen district.",
    "estimated_duration": "1 hour",
    "rating": 4.2,
    "review_count": 750,
    "min_budget": "¥1200"
  },
  {
    "name": "10 Factory Dogo",
    "region": "Shikoku",
    "city": "Matsuyama",
    "prefecture": "Ehime-ken",
    "neighborhood": "Dogo Onsen",
    "category": "food",
    "coordinates": {
      "lat": 33.8518,
      "lng": 132.786
    },
    "short_description": "Stylish citrus specialty shop offering tasting flights of mikan juice and gelato.",
    "estimated_duration": "30 mins",
    "rating": 4.3,
    "review_count": 950,
    "min_budget": "¥600"
  },
  {
    "name": "Sushi Maru Honten",
    "region": "Shikoku",
    "city": "Matsuyama",
    "prefecture": "Ehime-ken",
    "neighborhood": "Nibancho",
    "category": "food",
    "coordinates": {
      "lat": 33.8405,
      "lng": 132.768
    },
    "short_description": "Established sushi restaurant famous for 'Matsuyama Sushi', a local chirashi-zushi with sweet vinegar.",
    "estimated_duration": "1.5 hours",
    "rating": 3.9,
    "review_count": 500,
    "min_budget": "¥2500"
  },
  {
    "name": "Hyota",
    "region": "Shikoku",
    "city": "Matsuyama",
    "prefecture": "Ehime-ken",
    "neighborhood": "Sanbancho",
    "category": "food",
    "coordinates": {
      "lat": 33.8385,
      "lng": 132.764
    },
    "short_description": "Unique ramen shop famous for its sweet broth, a distinctive Matsuyama flavor profile.",
    "estimated_duration": "45 mins",
    "rating": 3.8,
    "review_count": 1100,
    "min_budget": "¥800"
  },
  {
    "name": "Tsuboya",
    "region": "Shikoku",
    "city": "Matsuyama",
    "prefecture": "Ehime-ken",
    "neighborhood": "Dogo Onsen",
    "category": "food",
    "coordinates": {
      "lat": 33.852,
      "lng": 132.7855
    },
    "short_description": "Historic confectionery selling Botchan Dango, the tricolor dumplings featured in Natsume Soseki's novel.",
    "estimated_duration": "15 mins",
    "rating": 4.1,
    "review_count": 400,
    "min_budget": "¥500"
  },
  {
    "name": "Taimeshi Maki",
    "region": "Shikoku",
    "city": "Matsuyama",
    "prefecture": "Ehime-ken",
    "neighborhood": "Matsuyama City Station",
    "category": "food",
    "coordinates": {
      "lat": 33.8355,
      "lng": 132.7605
    },
    "short_description": "Conveniently located spot for authentic Tai-meshi near the main city station.",
    "estimated_duration": "1 hour",
    "rating": 4.0,
    "review_count": 350,
    "min_budget": "¥1600"
  },
  {
    "name": "Dogo Beer Hall",
    "region": "Shikoku",
    "city": "Matsuyama",
    "prefecture": "Ehime-ken",
    "neighborhood": "Dogo Onsen",
    "category": "food",
    "coordinates": {
      "lat": 33.8522,
      "lng": 132.7862
    },
    "short_description": "Brewery restaurant serving Dogo Beer and dishes made with local ingredients like Jakoten.",
    "estimated_duration": "1.5 hours",
    "rating": 4.0,
    "review_count": 850,
    "min_budget": "¥2000"
  },
  {
    "name": "Kaisen Shubo Umemaru",
    "region": "Shikoku",
    "city": "Matsuyama",
    "prefecture": "Ehime-ken",
    "neighborhood": "Okaido",
    "category": "food",
    "coordinates": {
      "lat": 33.8398,
      "lng": 132.7675
    },
    "short_description": "Popular seafood izakaya with a large fish tank, offering fresh sashimi and local sake.",
    "estimated_duration": "2 hours",
    "rating": 4.1,
    "review_count": 400,
    "min_budget": "¥4000"
  },
  {
    "name": "Menya Niikura",
    "region": "Shikoku",
    "city": "Matsuyama",
    "prefecture": "Ehime-ken",
    "neighborhood": "Dogo",
    "category": "food",
    "coordinates": {
      "lat": 33.8505,
      "lng": 132.789
    },
    "short_description": "Michelin-listed ramen shop known for its rich Tsukemen (dipping noodles) and refined broth.",
    "estimated_duration": "45 mins",
    "rating": 4.2,
    "review_count": 600,
    "min_budget": "¥1000"
  },
  {
    "name": "Sohsoh",
    "region": "Shikoku",
    "city": "Matsuyama",
    "prefecture": "Ehime-ken",
    "neighborhood": "Okaido",
    "category": "food",
    "coordinates": {
      "lat": 33.838,
      "lng": 132.766
    },
    "short_description": "Healthy dining specializing in huge portions of local vegetables and balanced set meals.",
    "estimated_duration": "1 hour",
    "rating": 4.3,
    "review_count": 300,
    "min_budget": "¥1500"
  },
  {
    "name": "Okonomiyaki Miyoshi",
    "region": "Shikoku",
    "city": "Matsuyama",
    "prefecture": "Ehime-ken",
    "neighborhood": "Mitsuhama",
    "category": "food",
    "coordinates": {
      "lat": 33.859,
      "lng": 132.7145
    },
    "short_description": "Tiny, authentic Mitsuhama-yaki shop where locals gather for hearty, grilled-to-order pancakes.",
    "estimated_duration": "45 mins",
    "rating": 4.4,
    "review_count": 200,
    "min_budget": "¥700"
  },
  {
    "name": "Dogo Pudding",
    "region": "Shikoku",
    "city": "Matsuyama",
    "prefecture": "Ehime-ken",
    "neighborhood": "Dogo Onsen",
    "category": "food",
    "coordinates": {
      "lat": 33.851,
      "lng": 132.7865
    },
    "short_description": "Cute pudding shop offering photogenic sweets in retro jars, popular for walking and eating.",
    "estimated_duration": "15 mins",
    "rating": 4.0,
    "review_count": 300,
    "min_budget": "¥500"
  },
  {
    "name": "Yakitori Tenguyashiki Momotaro",
    "region": "Shikoku",
    "city": "Matsuyama",
    "prefecture": "Ehime-ken",
    "neighborhood": "Okaido",
    "category": "food",
    "coordinates": {
      "lat": 33.8415,
      "lng": 132.7685
    },
    "short_description": "Lively Yakitori restaurant using local chicken, known for its energetic atmosphere.",
    "estimated_duration": "1.5 hours",
    "rating": 3.9,
    "review_count": 250,
    "min_budget": "¥3000"
  },
  {
    "name": "Bansuiso Cafe",
    "region": "Shikoku",
    "city": "Matsuyama",
    "prefecture": "Ehime-ken",
    "neighborhood": "Ichibancho",
    "category": "food",
    "coordinates": {
      "lat": 33.842,
      "lng": 132.7705
    },
    "short_description": "Elegant cafe located within the grounds of a French Renaissance-style villa.",
    "estimated_duration": "1 hour",
    "rating": 4.1,
    "review_count": 150,
    "min_budget": "¥1000"
  },
  {
    "name": "Nishiki Iwamoto",
    "region": "Shikoku",
    "city": "Matsuyama",
    "prefecture": "Ehime-ken",
    "neighborhood": "Katsuyamacho",
    "category": "food",
    "coordinates": {
      "lat": 33.8435,
      "lng": 132.775
    },
    "short_description": "Bib Gourmand ramen shop famous for its delicate salt ramen and鯛 (tai) based broth.",
    "estimated_duration": "45 mins",
    "rating": 4.2,
    "review_count": 350,
    "min_budget": "¥900"
  },
  {
    "name": "Isshinmaru Dogo",
    "region": "Shikoku",
    "city": "Matsuyama",
    "prefecture": "Ehime-ken",
    "neighborhood": "Dogo Onsen",
    "category": "food",
    "coordinates": {
      "lat": 33.8525,
      "lng": 132.785
    },
    "short_description": "Izakaya near Dogo Onsen offering fresh local seafood and sake in a relaxed setting.",
    "estimated_duration": "1.5 hours",
    "rating": 4.0,
    "review_count": 200,
    "min_budget": "¥3500"
  },
  {
    "name": "Rico Sweets",
    "region": "Shikoku",
    "city": "Matsuyama",
    "prefecture": "Ehime-ken",
    "neighborhood": "Okaido",
    "category": "food",
    "coordinates": {
      "lat": 33.839,
      "lng": 132.7668
    },
    "short_description": "Charming patisserie and cafe specializing in cakes and tarts made with local fruits.",
    "estimated_duration": "45 mins",
    "rating": 4.2,
    "review_count": 250,
    "min_budget": "¥1200"
  },
  {
    "name": "Kamekichi",
    "region": "Shikoku",
    "city": "Matsuyama",
    "prefecture": "Ehime-ken",
    "neighborhood": "Nibancho",
    "category": "food",
    "coordinates": {
      "lat": 33.8412,
      "lng": 132.769
    },
    "short_description": "Hidden gem izakaya in a back alley, beloved by locals for its home-style cooking and sake.",
    "estimated_duration": "2 hours",
    "rating": 4.4,
    "review_count": 100,
    "min_budget": "¥4000"
  },
  {
    "name": "Cafe Flare",
    "region": "Shikoku",
    "city": "Matsuyama",
    "prefecture": "Ehime-ken",
    "neighborhood": "Okaido",
    "category": "food",
    "coordinates": {
      "lat": 33.84,
      "lng": 132.7672
    },
    "short_description": "Cafe with a nice view, great for lunch plates and relaxing after visiting the castle.",
    "estimated_duration": "1 hour",
    "rating": 4.0,
    "review_count": 150,
    "min_budget": "¥1200"
  },
  {
    "name": "Dogo Musubi Kaguwa",
    "region": "Shikoku",
    "city": "Matsuyama",
    "prefecture": "Ehime-ken",
    "neighborhood": "Dogo Onsen",
    "category": "food",
    "coordinates": {
      "lat": 33.8512,
      "lng": 132.787
    },
    "short_description": "Specialty shop for fancy Onigiri (rice balls) often paired with sea bream soup.",
    "estimated_duration": "30 mins",
    "rating": 4.1,
    "review_count": 120,
    "min_budget": "¥800"
  },
  {
    "name": "La Branche",
    "region": "Shikoku",
    "city": "Matsuyama",
    "prefecture": "Ehime-ken",
    "neighborhood": "Minamiedo",
    "category": "food",
    "coordinates": {
      "lat": 33.834,
      "lng": 132.748
    },
    "short_description": "Popular local cake shop known for its rich cream and beautifully decorated pastries.",
    "estimated_duration": "15 mins",
    "rating": 4.2,
    "review_count": 300,
    "min_budget": "¥600"
  },
  {
    "name": "Utsuboya",
    "region": "Shikoku",
    "city": "Matsuyama",
    "prefecture": "Ehime-ken",
    "neighborhood": "Dogo Onsen",
    "category": "food",
    "coordinates": {
      "lat": 33.8528,
      "lng": 132.7848
    },
    "short_description": "Another top spot for Botchan Dango, offering individually wrapped skewers perfect for souvenirs.",
    "estimated_duration": "15 mins",
    "rating": 4.0,
    "review_count": 250,
    "min_budget": "¥500"
  },
  {
    "name": "Iyo Tanuki",
    "region": "Shikoku",
    "city": "Matsuyama",
    "prefecture": "Ehime-ken",
    "neighborhood": "Dogo Onsen",
    "category": "food",
    "coordinates": {
      "lat": 33.8508,
      "lng": 132.7852
    },
    "short_description": "Eclectic izakaya with distinct tanuki (raccoon dog) decor, serving a wide range of local dishes.",
    "estimated_duration": "1.5 hours",
    "rating": 3.8,
    "review_count": 300,
    "min_budget": "¥3000"
  },
  {
    "name": "Saka no Ue no Kumo Museum Cafe",
    "region": "Shikoku",
    "city": "Matsuyama",
    "prefecture": "Ehime-ken",
    "neighborhood": "Ichibancho",
    "category": "food",
    "coordinates": {
      "lat": 33.843,
      "lng": 132.771
    },
    "short_description": "Modern cafe inside the museum designed by Tadao Ando, offering coffee with a view.",
    "estimated_duration": "45 mins",
    "rating": 4.0,
    "review_count": 100,
    "min_budget": "¥800"
  },
  {
    "name": "Kurofune Sobanzai",
    "region": "Shikoku",
    "city": "Matsuyama",
    "prefecture": "Ehime-ken",
    "neighborhood": "Matsuyama City Station",
    "category": "food",
    "coordinates": {
      "lat": 33.835,
      "lng": 132.761
    },
    "short_description": "Soba noodle specialist offering innovative dipping styles and tempura sets.",
    "estimated_duration": "45 mins",
    "rating": 3.9,
    "review_count": 200,
    "min_budget": "¥1000"
  },
  {
    "name": "Karage Shokudo Goichi",
    "region": "Shikoku",
    "city": "Matsuyama",
    "prefecture": "Ehime-ken",
    "neighborhood": "Matsuyama City Station",
    "category": "food",
    "coordinates": {
      "lat": 33.8352,
      "lng": 132.7602
    },
    "short_description": "Beloved local diner famous for its massive, juicy fried chicken (karaage) sets.",
    "estimated_duration": "45 mins",
    "rating": 4.1,
    "review_count": 350,
    "min_budget": "¥900"
  },
  {
    "name": "Mustakivi",
    "region": "Shikoku",
    "city": "Matsuyama",
    "prefecture": "Ehime-ken",
    "neighborhood": "Okaido",
    "category": "food",
    "coordinates": {
      "lat": 33.8425,
      "lng": 132.7695
    },
    "short_description": "Minimalist gallery and cafe producing high-end Japanese sweets like Yokan with local ingredients.",
    "estimated_duration": "45 mins",
    "rating": 4.2,
    "review_count": 80,
    "min_budget": "¥1000"
  },
  {
    "name": "Kiyomizu",
    "region": "Shikoku",
    "city": "Matsuyama",
    "prefecture": "Ehime-ken",
    "neighborhood": "Nibancho",
    "category": "food",
    "coordinates": {
      "lat": 33.8418,
      "lng": 132.772
    },
    "short_description": "Kyoto-style kaiseki cuisine using Ehime's bountiful seafood and vegetables.",
    "estimated_duration": "2 hours",
    "rating": 4.3,
    "review_count": 100,
    "min_budget": "¥8000"
  },
  {
    "name": "Ootaki",
    "region": "Shikoku",
    "city": "Matsuyama",
    "prefecture": "Ehime-ken",
    "neighborhood": "Nibancho",
    "category": "food",
    "coordinates": {
      "lat": 33.8415,
      "lng": 132.7715
    },
    "short_description": "Refined Japanese dining offering seasonal courses and local sake in a quiet atmosphere.",
    "estimated_duration": "2 hours",
    "rating": 4.4,
    "review_count": 80,
    "min_budget": "¥10000"
  },
  {
    "name": "Yamatoya Honten Restaurant",
    "region": "Shikoku",
    "city": "Matsuyama",
    "prefecture": "Ehime-ken",
    "neighborhood": "Dogo Onsen",
    "category": "food",
    "coordinates": {
      "lat": 33.8525,
      "lng": 132.7858
    },
    "short_description": "Dining within a premier ryokan, offering exquisite kaiseki lunches available to non-guests.",
    "estimated_duration": "1.5 hours",
    "rating": 4.3,
    "review_count": 300,
    "min_budget": "¥3500"
  },
  {
    "name": "Funaya",
    "region": "Shikoku",
    "city": "Matsuyama",
    "prefecture": "Ehime-ken",
    "neighborhood": "Dogo Onsen",
    "category": "food",
    "coordinates": {
      "lat": 33.85,
      "lng": 132.7875
    },
    "short_description": "Historic ryokan with a beautiful garden, serving traditional tea and kaiseki meals.",
    "estimated_duration": "1.5 hours",
    "rating": 4.5,
    "review_count": 400,
    "min_budget": "¥4000"
  },
  {
    "name": "Paradiso",
    "region": "Shikoku",
    "city": "Matsuyama",
    "prefecture": "Ehime-ken",
    "neighborhood": "Nibancho",
    "category": "food",
    "coordinates": {
      "lat": 33.8408,
      "lng": 132.7688
    },
    "short_description": "Popular Italian dining bar with late-night hours, great for pizza and wine.",
    "estimated_duration": "1.5 hours",
    "rating": 3.9,
    "review_count": 200,
    "min_budget": "¥3000"
  },
  {
    "name": "Nanohana",
    "region": "Shikoku",
    "city": "Matsuyama",
    "prefecture": "Ehime-ken",
    "neighborhood": "Ichibancho",
    "category": "food",
    "coordinates": {
      "lat": 33.8422,
      "lng": 132.7698
    },
    "short_description": "Creative Japanese cuisine focusing on fresh, locally sourced seasonal ingredients.",
    "estimated_duration": "1.5 hours",
    "rating": 4.0,
    "review_count": 120,
    "min_budget": "¥4000"
  },
  {
    "name": "Sushi no Ma",
    "region": "Shikoku",
    "city": "Matsuyama",
    "prefecture": "Ehime-ken",
    "neighborhood": "Nibancho",
    "category": "food",
    "coordinates": {
      "lat": 33.841,
      "lng": 132.773
    },
    "short_description": "High-end sushi counter offering an omakase experience with top-tier Setouchi seafood.",
    "estimated_duration": "2 hours",
    "rating": 4.6,
    "review_count": 60,
    "min_budget": "¥15000"
  },
  {
    "name": "Yakitori Gang",
    "region": "Shikoku",
    "city": "Matsuyama",
    "prefecture": "Ehime-ken",
    "neighborhood": "Okaido",
    "category": "food",
    "coordinates": {
      "lat": 33.8405,
      "lng": 132.7678
    },
    "short_description": "Casual and energetic yakitori spot popular for late-night skewers and drinks.",
    "estimated_duration": "1.5 hours",
    "rating": 3.8,
    "review_count": 150,
    "min_budget": "¥2500"
  },
  {
    "name": "Amaguri",
    "region": "Shikoku",
    "city": "Matsuyama",
    "prefecture": "Ehime-ken",
    "neighborhood": "Okaido",
    "category": "food",
    "coordinates": {
      "lat": 33.8392,
      "lng": 132.7662
    },
    "short_description": "Street-side shop famous for its fresh roasted sweet chestnuts, a perfect walking snack.",
    "estimated_duration": "10 mins",
    "rating": 4.0,
    "review_count": 100,
    "min_budget": "¥500"
  },
  {
    "name": "Mikan Juice Faucet (Matsuyama Airport)",
    "region": "Shikoku",
    "city": "Matsuyama",
    "prefecture": "Ehime-ken",
    "neighborhood": "Airport",
    "category": "food",
    "coordinates": {
      "lat": 33.827,
      "lng": 132.704
    },
    "short_description": "Iconic experience where fresh mandarin orange juice flows directly from a tap.",
    "estimated_duration": "15 mins",
    "rating": 4.5,
    "review_count": 1500,
    "min_budget": "¥350"
  },
  {
    "name": "Laboratoire L'art et la Maniere",
    "region": "Shikoku",
    "city": "Matsuyama",
    "prefecture": "Ehime-ken",
    "neighborhood": "Furukawa",
    "category": "food",
    "coordinates": {
      "lat": 33.815,
      "lng": 132.755
    },
    "short_description": "Sophisticated patisserie known for its artistic cakes and high-quality chocolate.",
    "estimated_duration": "30 mins",
    "rating": 4.3,
    "review_count": 150,
    "min_budget": "¥800"
  },
  {
    "name": "Kushikatsu Tanaka Okaido",
    "region": "Shikoku",
    "city": "Matsuyama",
    "prefecture": "Ehime-ken",
    "neighborhood": "Okaido",
    "category": "food",
    "coordinates": {
      "lat": 33.8403,
      "lng": 132.7673
    },
    "short_description": "Reliable spot for crispy deep-fried skewers, popular for casual drinking.",
    "estimated_duration": "1.5 hours",
    "rating": 3.7,
    "review_count": 200,
    "min_budget": "¥2000"
  },
  {
    "name": "Torimero Okaido",
    "region": "Shikoku",
    "city": "Matsuyama",
    "prefecture": "Ehime-ken",
    "neighborhood": "Okaido",
    "category": "food",
    "coordinates": {
      "lat": 33.8406,
      "lng": 132.7671
    },
    "short_description": "Budget-friendly izakaya specializing in chicken dishes and cheap beer.",
    "estimated_duration": "1.5 hours",
    "rating": 3.6,
    "review_count": 150,
    "min_budget": "¥2000"
  },
  {
    "name": "Minatto (Yawatahama Chanpon)",
    "region": "Shikoku",
    "city": "Yawatahama (Day trip)",
    "prefecture": "Ehime-ken",
    "neighborhood": "Port Area",
    "category": "food",
    "coordinates": {
      "lat": 33.458,
      "lng": 132.425
    },
    "short_description": "The best place to try Yawatahama Chanpon, a golden-broth noodle soup, if exploring the coast.",
    "estimated_duration": "1 hour",
    "rating": 4.0,
    "review_count": 800,
    "min_budget": "¥900"
  }
]
