[
  {
    "name": "Shikairou",
    "region": "Kyushu",
    "city": "Nagasaki",
    "prefecture": "Nagasaki-ken",
    "neighborhood": "Matsugaemachi",
    "category": "food",
    "coordinates": {
      "lat": 32.7351,
      "lng": 129.8711
    },
    "short_description": "The grand birthplace of Nagasaki Champon, offering museum exhibits and harbor views.",
    "estimated_duration": "1-1.5 hours",
    "rating": 3.9,
    "review_count": 2800,
    "min_budget": "¥1500"
  },
  {
    "name": "Kozanrou Chinatown",
    "region": "Kyushu",
    "city": "Nagasaki",
    "prefecture": "Nagasaki-ken",
    "neighborhood": "Shinchi Chinatown",
    "category": "food",
    "coordinates": {
      "lat": 32.7424,
      "lng": 129.8758
    },
    "short_description": "A top-rated favorite in Chinatown known for its rich, creamy Champon broth.",
    "estimated_duration": "1 hour",
    "rating": 4.1,
    "review_count": 2500,
    "min_budget": "¥1200"
  },
  {
    "name": "Yossou",
    "region": "Kyushu",
    "city": "Nagasaki",
    "prefecture": "Nagasaki-ken",
    "neighborhood": "Hamanomachi",
    "category": "food",
    "coordinates": {
      "lat": 32.7443,
      "lng": 129.8787
    },
    "short_description": "Historic restaurant (est. 1866) famous for its oversized Chawanmushi (savory egg custard).",
    "estimated_duration": "1 hour",
    "rating": 4.2,
    "review_count": 1800,
    "min_budget": "¥1500"
  },
  {
    "name": "Tsuruchan",
    "region": "Kyushu",
    "city": "Nagasaki",
    "prefecture": "Nagasaki-ken",
    "neighborhood": "Aburayamachi",
    "category": "food",
    "coordinates": {
      "lat": 32.7441,
      "lng": 129.8762
    },
    "short_description": "Kyushu's oldest coffee shop, widely credited as the originator of Ryoma Turk Rice.",
    "estimated_duration": "45 mins",
    "rating": 3.8,
    "review_count": 1600,
    "min_budget": "¥1200"
  },
  {
    "name": "Fukusaya Main Store",
    "region": "Kyushu",
    "city": "Nagasaki",
    "prefecture": "Nagasaki-ken",
    "neighborhood": "Funadaikumachi",
    "category": "food",
    "coordinates": {
      "lat": 32.7408,
      "lng": 129.879
    },
    "short_description": "The original Castella sponge cake shop, dating back to 1624, known for the sugar crystals on the bottom.",
    "estimated_duration": "30 mins",
    "rating": 4.5,
    "review_count": 1200,
    "min_budget": "¥1200"
  },
  {
    "name": "Hountei",
    "region": "Kyushu",
    "city": "Nagasaki",
    "prefecture": "Nagasaki-ken",
    "neighborhood": "Dozamachi",
    "category": "food",
    "coordinates": {
      "lat": 32.7415,
      "lng": 129.8775
    },
    "short_description": "Famous for bite-sized 'hitokuchi' gyoza, a perfect beer companion.",
    "estimated_duration": "1 hour",
    "rating": 4.0,
    "review_count": 900,
    "min_budget": "¥1500"
  },
  {
    "name": "Ryotei Kagetsu",
    "region": "Kyushu",
    "city": "Nagasaki",
    "prefecture": "Nagasaki-ken",
    "neighborhood": "Maruyamacho",
    "category": "food",
    "coordinates": {
      "lat": 32.7395,
      "lng": 129.881
    },
    "short_description": "A historic high-end restaurant serving traditional Shippoku banquet cuisine in a garden setting.",
    "estimated_duration": "2.5 hours",
    "rating": 4.4,
    "review_count": 300,
    "min_budget": "¥8000"
  },
  {
    "name": "Menya Always",
    "region": "Kyushu",
    "city": "Nagasaki",
    "prefecture": "Nagasaki-ken",
    "neighborhood": "Shianbashi",
    "category": "food",
    "coordinates": {
      "lat": 32.741,
      "lng": 129.8805
    },
    "short_description": "Modern ramen shop popular for its lemon tonkotsu ramen.",
    "estimated_duration": "45 mins",
    "rating": 4.1,
    "review_count": 800,
    "min_budget": "¥900"
  },
  {
    "name": "Bistro Bordeaux",
    "region": "Kyushu",
    "city": "Nagasaki",
    "prefecture": "Nagasaki-ken",
    "neighborhood": "Hamanomachi",
    "category": "food",
    "coordinates": {
      "lat": 32.7445,
      "lng": 129.877
    },
    "short_description": "Claims to be the birthplace of Turk Rice (Toruko Rice), serving it in a classic bistro setting.",
    "estimated_duration": "1 hour",
    "rating": 3.7,
    "review_count": 600,
    "min_budget": "¥1500"
  },
  {
    "name": "Attic",
    "region": "Kyushu",
    "city": "Nagasaki",
    "prefecture": "Nagasaki-ken",
    "neighborhood": "Dejima",
    "category": "food",
    "coordinates": {
      "lat": 32.7419,
      "lng": 129.8722
    },
    "short_description": "Seaside cafe famous for cappuccino foam art depicting historical figures like Ryoma Sakamoto.",
    "estimated_duration": "1 hour",
    "rating": 4.2,
    "review_count": 1100,
    "min_budget": "¥1000"
  },
  {
    "name": "Kaniya",
    "region": "Kyushu",
    "city": "Nagasaki",
    "prefecture": "Nagasaki-ken",
    "neighborhood": "Dozamachi",
    "category": "food",
    "coordinates": {
      "lat": 32.743,
      "lng": 129.8775
    },
    "short_description": "Legendary late-night onigiri specialty shop, perfect after drinking.",
    "estimated_duration": "30 mins",
    "rating": 4.1,
    "review_count": 1300,
    "min_budget": "¥800"
  },
  {
    "name": "Iwasaki Honpo",
    "region": "Kyushu",
    "city": "Nagasaki",
    "prefecture": "Nagasaki-ken",
    "neighborhood": "Shinchi Chinatown",
    "category": "food",
    "coordinates": {
      "lat": 32.742,
      "lng": 129.875
    },
    "short_description": "Famous for Nagasaki Kakuni Manju (tender braised pork belly in a steamed bun).",
    "estimated_duration": "15 mins",
    "rating": 4.3,
    "review_count": 900,
    "min_budget": "¥500"
  },
  {
    "name": "Cafe Olympic",
    "region": "Kyushu",
    "city": "Nagasaki",
    "prefecture": "Nagasaki-ken",
    "neighborhood": "Hamanomachi",
    "category": "food",
    "coordinates": {
      "lat": 32.745,
      "lng": 129.878
    },
    "short_description": "Known for massive, towering parfaits ranging from 30cm to 1.2 meters high.",
    "estimated_duration": "1 hour",
    "rating": 3.9,
    "review_count": 700,
    "min_budget": "¥1500"
  },
  {
    "name": "Kaisen Ichiba Nagasakiko",
    "region": "Kyushu",
    "city": "Nagasaki",
    "prefecture": "Nagasaki-ken",
    "neighborhood": "Dejima",
    "category": "food",
    "coordinates": {
      "lat": 32.7415,
      "lng": 129.8725
    },
    "short_description": "Fresh seafood rice bowls (kaisendon) served right on the Dejima Wharf.",
    "estimated_duration": "1 hour",
    "rating": 4.0,
    "review_count": 1400,
    "min_budget": "¥2000"
  },
  {
    "name": "Ramen Hiiragi",
    "region": "Kyushu",
    "city": "Nagasaki",
    "prefecture": "Nagasaki-ken",
    "neighborhood": "Dozamachi",
    "category": "food",
    "coordinates": {
      "lat": 32.7425,
      "lng": 129.8765
    },
    "short_description": "Popular for its unique tomato ramen with eggplant.",
    "estimated_duration": "45 mins",
    "rating": 4.1,
    "review_count": 900,
    "min_budget": "¥900"
  },
  {
    "name": "Shianbashi Ramen",
    "region": "Kyushu",
    "city": "Nagasaki",
    "prefecture": "Nagasaki-ken",
    "neighborhood": "Shianbashi",
    "category": "food",
    "coordinates": {
      "lat": 32.7412,
      "lng": 129.8812
    },
    "short_description": "Late-night spot famous for 'Bakudan' (bomb) Champon loaded with garlic paste.",
    "estimated_duration": "45 mins",
    "rating": 3.7,
    "review_count": 1100,
    "min_budget": "¥1000"
  },
  {
    "name": "Horaiken",
    "region": "Kyushu",
    "city": "Nagasaki",
    "prefecture": "Nagasaki-ken",
    "neighborhood": "Hiranomachi",
    "category": "food",
    "coordinates": {
      "lat": 32.7725,
      "lng": 129.863
    },
    "short_description": "Respected Champon shop located near the Atomic Bomb Museum.",
    "estimated_duration": "1 hour",
    "rating": 4.0,
    "review_count": 600,
    "min_budget": "¥1000"
  },
  {
    "name": "Nicky Arnstein",
    "region": "Kyushu",
    "city": "Nagasaki",
    "prefecture": "Nagasaki-ken",
    "neighborhood": "Yorozuyamachi",
    "category": "food",
    "coordinates": {
      "lat": 32.746,
      "lng": 129.879
    },
    "short_description": "A specialist shop offering over 150 variations of Turk Rice.",
    "estimated_duration": "1 hour",
    "rating": 3.9,
    "review_count": 500,
    "min_budget": "¥1200"
  },
  {
    "name": "Shooken Main Store",
    "region": "Kyushu",
    "city": "Nagasaki",
    "prefecture": "Nagasaki-ken",
    "neighborhood": "Uonomachi",
    "category": "food",
    "coordinates": {
      "lat": 32.7485,
      "lng": 129.88
    },
    "short_description": "One of the 'big three' Castella producers, known for a slightly richer, moister cake.",
    "estimated_duration": "30 mins",
    "rating": 4.3,
    "review_count": 500,
    "min_budget": "¥1200"
  },
  {
    "name": "Bunmeido Main Store",
    "region": "Kyushu",
    "city": "Nagasaki",
    "prefecture": "Nagasaki-ken",
    "neighborhood": "Edamachi",
    "category": "food",
    "coordinates": {
      "lat": 32.741,
      "lng": 129.8735
    },
    "short_description": "Famous Castella brand widely known across Japan, offering various seasonal flavors.",
    "estimated_duration": "30 mins",
    "rating": 4.2,
    "review_count": 600,
    "min_budget": "¥1200"
  },
  {
    "name": "Shippoku Hamakatsu",
    "region": "Kyushu",
    "city": "Nagasaki",
    "prefecture": "Nagasaki-ken",
    "neighborhood": "Kajiyamachi",
    "category": "food",
    "coordinates": {
      "lat": 32.7435,
      "lng": 129.8785
    },
    "short_description": "Accessible restaurant offering Shippoku cuisine sets for individual diners.",
    "estimated_duration": "1.5 hours",
    "rating": 4.0,
    "review_count": 400,
    "min_budget": "¥3500"
  },
  {
    "name": "Kitchen Seiji",
    "region": "Kyushu",
    "city": "Nagasaki",
    "prefecture": "Nagasaki-ken",
    "neighborhood": "Higashiyamatemachi",
    "category": "food",
    "coordinates": {
      "lat": 32.737,
      "lng": 129.872
    },
    "short_description": "Charming retro restaurant designed to look like a streetcar, serving Turk Rice.",
    "estimated_duration": "1 hour",
    "rating": 4.1,
    "review_count": 500,
    "min_budget": "¥1200"
  },
  {
    "name": "Kyorakuen",
    "region": "Kyushu",
    "city": "Nagasaki",
    "prefecture": "Nagasaki-ken",
    "neighborhood": "Furukawamachi",
    "category": "food",
    "coordinates": {
      "lat": 32.7465,
      "lng": 129.8805
    },
    "short_description": "Locally loved old-school Chinese shop known for its authentic Champon.",
    "estimated_duration": "45 mins",
    "rating": 4.0,
    "review_count": 600,
    "min_budget": "¥900"
  },
  {
    "name": "Baigetsudo",
    "region": "Kyushu",
    "city": "Nagasaki",
    "prefecture": "Nagasaki-ken",
    "neighborhood": "Hamanomachi",
    "category": "food",
    "coordinates": {
      "lat": 32.7455,
      "lng": 129.8785
    },
    "short_description": "Famous dessert shop for 'Milkeseki', a refreshing milk-sherbet specialty.",
    "estimated_duration": "45 mins",
    "rating": 3.9,
    "review_count": 400,
    "min_budget": "¥800"
  },
  {
    "name": "Yakitori Torimasa",
    "region": "Kyushu",
    "city": "Nagasaki",
    "prefecture": "Nagasaki-ken",
    "neighborhood": "Dozamachi",
    "category": "food",
    "coordinates": {
      "lat": 32.7418,
      "lng": 129.8778
    },
    "short_description": "Popular yakitori izakaya using fresh local chicken.",
    "estimated_duration": "1.5 hours",
    "rating": 4.1,
    "review_count": 300,
    "min_budget": "¥3000"
  },
  {
    "name": "Tarafuku Asa",
    "region": "Kyushu",
    "city": "Nagasaki",
    "prefecture": "Nagasaki-ken",
    "neighborhood": "Aburayamachi",
    "category": "food",
    "coordinates": {
      "lat": 32.7438,
      "lng": 129.8795
    },
    "short_description": "Authentic izakaya offering fresh sashimi and local seafood dishes.",
    "estimated_duration": "2 hours",
    "rating": 4.3,
    "review_count": 100,
    "min_budget": "¥4000"
  },
  {
    "name": "Akasatana",
    "region": "Kyushu",
    "city": "Nagasaki",
    "prefecture": "Nagasaki-ken",
    "neighborhood": "Kajiyamachi",
    "category": "food",
    "coordinates": {
      "lat": 32.7425,
      "lng": 129.879
    },
    "short_description": "Hidden gem creative izakaya fusing Japanese and Western flavors.",
    "estimated_duration": "2 hours",
    "rating": 4.2,
    "review_count": 80,
    "min_budget": "¥3000"
  },
  {
    "name": "Koiso",
    "region": "Kyushu",
    "city": "Nagasaki",
    "prefecture": "Nagasaki-ken",
    "neighborhood": "Shianbashi",
    "category": "food",
    "coordinates": {
      "lat": 32.7412,
      "lng": 129.881
    },
    "short_description": "Highly-rated, cozy izakaya in the Shianbashi entertainment district.",
    "estimated_duration": "2 hours",
    "rating": 4.4,
    "review_count": 100,
    "min_budget": "¥5000"
  },
  {
    "name": "Mutsugoro",
    "region": "Kyushu",
    "city": "Nagasaki",
    "prefecture": "Nagasaki-ken",
    "neighborhood": "Shianbashi",
    "category": "food",
    "coordinates": {
      "lat": 32.7415,
      "lng": 129.882
    },
    "short_description": "Seafood izakaya specializing in local fish and whale dishes.",
    "estimated_duration": "2 hours",
    "rating": 4.0,
    "review_count": 200,
    "min_budget": "¥4000"
  },
  {
    "name": "Unryutei",
    "region": "Kyushu",
    "city": "Nagasaki",
    "prefecture": "Nagasaki-ken",
    "neighborhood": "Motoshikkuimachi",
    "category": "food",
    "coordinates": {
      "lat": 32.7428,
      "lng": 129.8782
    },
    "short_description": "Specialty shop for hitokuchi (bite-sized) gyoza, a rival to Hountei.",
    "estimated_duration": "1 hour",
    "rating": 3.9,
    "review_count": 400,
    "min_budget": "¥1500"
  },
  {
    "name": "Gonin Byakusho",
    "region": "Kyushu",
    "city": "Nagasaki",
    "prefecture": "Nagasaki-ken",
    "neighborhood": "Dozamachi",
    "category": "food",
    "coordinates": {
      "lat": 32.7422,
      "lng": 129.877
    },
    "short_description": "Rustic izakaya with a farmhouse vibe serving local Kyushu cuisine.",
    "estimated_duration": "2 hours",
    "rating": 3.8,
    "review_count": 300,
    "min_budget": "¥3000"
  },
  {
    "name": "Nagasaki Wagyu Yakiniku Pure",
    "region": "Kyushu",
    "city": "Nagasaki",
    "prefecture": "Nagasaki-ken",
    "neighborhood": "Shinchi",
    "category": "food",
    "coordinates": {
      "lat": 32.7418,
      "lng": 129.8755
    },
    "short_description": "Specializes in high-quality local Nagasaki Wagyu beef.",
    "estimated_duration": "1.5 hours",
    "rating": 4.3,
    "review_count": 500,
    "min_budget": "¥5000"
  },
  {
    "name": "Restaurant Pave",
    "region": "Kyushu",
    "city": "Nagasaki",
    "prefecture": "Nagasaki-ken",
    "neighborhood": "Minamiyamatemachi",
    "category": "food",
    "coordinates": {
      "lat": 32.735,
      "lng": 129.87
    },
    "short_description": "Elegant French dining located in the Glover Hill hotel.",
    "estimated_duration": "2 hours",
    "rating": 4.2,
    "review_count": 200,
    "min_budget": "¥4000"
  },
  {
    "name": "Lao Lee",
    "region": "Kyushu",
    "city": "Nagasaki",
    "prefecture": "Nagasaki-ken",
    "neighborhood": "Shinchi Chinatown",
    "category": "food",
    "coordinates": {
      "lat": 32.7426,
      "lng": 129.876
    },
    "short_description": "Taiwanese-style restaurant in Chinatown famous for its authentic Champon.",
    "estimated_duration": "1 hour",
    "rating": 4.0,
    "review_count": 800,
    "min_budget": "¥1200"
  },
  {
    "name": "Sakamotoya",
    "region": "Kyushu",
    "city": "Nagasaki",
    "prefecture": "Nagasaki-ken",
    "neighborhood": "Kanayamachi",
    "category": "food",
    "coordinates": {
      "lat": 32.75,
      "lng": 129.875
    },
    "short_description": "Traditional restaurant renowned for its Kakuni (braised pork) dishes.",
    "estimated_duration": "1.5 hours",
    "rating": 4.1,
    "review_count": 300,
    "min_budget": "¥3000"
  },
  {
    "name": "Coffee Fujio",
    "region": "Kyushu",
    "city": "Nagasaki",
    "prefecture": "Nagasaki-ken",
    "neighborhood": "Kajiyamachi",
    "category": "food",
    "coordinates": {
      "lat": 32.743,
      "lng": 129.878
    },
    "short_description": "Retro coffee shop noted for its egg sandwiches and fruit milkshakes.",
    "estimated_duration": "45 mins",
    "rating": 3.9,
    "review_count": 200,
    "min_budget": "¥1000"
  },
  {
    "name": "Glover Garden Jiyutei",
    "region": "Kyushu",
    "city": "Nagasaki",
    "prefecture": "Nagasaki-ken",
    "neighborhood": "Minamiyamatemachi",
    "category": "food",
    "coordinates": {
      "lat": 32.7335,
      "lng": 129.8695
    },
    "short_description": "Western-style tea house located within the historic Glover Garden.",
    "estimated_duration": "45 mins",
    "rating": 4.2,
    "review_count": 300,
    "min_budget": "¥1200"
  },
  {
    "name": "Minamiyamate Pudding",
    "region": "Kyushu",
    "city": "Nagasaki",
    "prefecture": "Nagasaki-ken",
    "neighborhood": "Minamiyamatemachi",
    "category": "food",
    "coordinates": {
      "lat": 32.736,
      "lng": 129.8705
    },
    "short_description": "Popular pudding shop near Oura Church using fresh local ingredients.",
    "estimated_duration": "15 mins",
    "rating": 4.3,
    "review_count": 400,
    "min_budget": "¥500"
  },
  {
    "name": "Eiraku",
    "region": "Kyushu",
    "city": "Nagasaki",
    "prefecture": "Nagasaki-ken",
    "neighborhood": "Shinchi Chinatown",
    "category": "food",
    "coordinates": {
      "lat": 32.7422,
      "lng": 129.8762
    },
    "short_description": "Casual Chinatown spot serving solid Champon and Sara Udon.",
    "estimated_duration": "45 mins",
    "rating": 3.8,
    "review_count": 300,
    "min_budget": "¥1000"
  },
  {
    "name": "Soshurin",
    "region": "Kyushu",
    "city": "Nagasaki",
    "prefecture": "Nagasaki-ken",
    "neighborhood": "Shinchi Chinatown",
    "category": "food",
    "coordinates": {
      "lat": 32.7425,
      "lng": 129.8755
    },
    "short_description": "Well-regarded Chinese restaurant in the heart of the lantern district.",
    "estimated_duration": "1 hour",
    "rating": 3.9,
    "review_count": 250,
    "min_budget": "¥1500"
  },
  {
    "name": "Ten Ten Yu",
    "region": "Kyushu",
    "city": "Nagasaki",
    "prefecture": "Nagasaki-ken",
    "neighborhood": "Shinchi Chinatown",
    "category": "food",
    "coordinates": {
      "lat": 32.7423,
      "lng": 129.8759
    },
    "short_description": "Chinatown staple for crispy noodles (Sara Udon).",
    "estimated_duration": "45 mins",
    "rating": 3.8,
    "review_count": 200,
    "min_budget": "¥1000"
  },
  {
    "name": "June Coffee",
    "region": "Kyushu",
    "city": "Nagasaki",
    "prefecture": "Nagasaki-ken",
    "neighborhood": "Azemachi",
    "category": "food",
    "coordinates": {
      "lat": 32.78,
      "lng": 129.84
    },
    "short_description": "Stylish bakery and cafe known for croissants and sea views.",
    "estimated_duration": "1 hour",
    "rating": 4.4,
    "review_count": 150,
    "min_budget": "¥1000"
  },
  {
    "name": "Osakaya Hamanomachi",
    "region": "Kyushu",
    "city": "Nagasaki",
    "prefecture": "Nagasaki-ken",
    "neighborhood": "Hamanomachi",
    "category": "food",
    "coordinates": {
      "lat": 32.7448,
      "lng": 129.8775
    },
    "short_description": "High-value Yakiniku restaurant ideal for wagyu lovers.",
    "estimated_duration": "1.5 hours",
    "rating": 4.0,
    "review_count": 100,
    "min_budget": "¥4000"
  },
  {
    "name": "Hamanomachi Pudding",
    "region": "Kyushu",
    "city": "Nagasaki",
    "prefecture": "Nagasaki-ken",
    "neighborhood": "Hamanomachi",
    "category": "food",
    "coordinates": {
      "lat": 32.7452,
      "lng": 129.8782
    },
    "short_description": "Specialty pudding shop with smooth, creamy textures.",
    "estimated_duration": "15 mins",
    "rating": 4.1,
    "review_count": 100,
    "min_budget": "¥500"
  },
  {
    "name": "Dojin",
    "region": "Kyushu",
    "city": "Nagasaki",
    "prefecture": "Nagasaki-ken",
    "neighborhood": "Shianbashi",
    "category": "food",
    "coordinates": {
      "lat": 32.741,
      "lng": 129.8815
    },
    "short_description": "Deeply local spot for Champon, loved by residents for its authenticity.",
    "estimated_duration": "45 mins",
    "rating": 3.7,
    "review_count": 150,
    "min_budget": "¥800"
  }
]
