[
  {
    "name": "Uzuraya",
    "region": "Chubu",
    "city": "Nagano",
    "prefecture": "Nagano-ken",
    "neighborhood": "Togakushi",
    "category": "food",
    "coordinates": {
      "lat": 36.7414,
      "lng": 138.0854
    },
    "short_description": "Legendary Togakushi soba restaurant famous for its pure white, flavorful noodles and tempura.",
    "estimated_duration": "1-2 hours",
    "rating": 4.5,
    "review_count": 1400,
    "min_budget": "¥1500"
  },
  {
    "name": "Suyakame Zenkoji",
    "region": "Chubu",
    "city": "Nagano",
    "prefecture": "Nagano-ken",
    "neighborhood": "Zenkoji",
    "category": "food",
    "coordinates": {
      "lat": 36.6587,
      "lng": 138.1876
    },
    "short_description": "Miso specialist offering savory grilled miso rice balls and unique miso soft serve.",
    "estimated_duration": "30 mins",
    "rating": 4.4,
    "review_count": 500,
    "min_budget": "¥500"
  },
  {
    "name": "Ramen Misoya",
    "region": "Chubu",
    "city": "Nagano",
    "prefecture": "Nagano-ken",
    "neighborhood": "Nagano Station",
    "category": "food",
    "coordinates": {
      "lat": 36.6441,
      "lng": 138.1876
    },
    "short_description": "Popular ramen shop right by the station serving rich, hearty Shinshu miso ramen.",
    "estimated_duration": "45 mins",
    "rating": 4.0,
    "review_count": 1000,
    "min_budget": "¥900"
  },
  {
    "name": "Ogawa no Sho Daimon",
    "region": "Chubu",
    "city": "Nagano",
    "prefecture": "Nagano-ken",
    "neighborhood": "Patio Daimon",
    "category": "food",
    "coordinates": {
      "lat": 36.6556,
      "lng": 138.1877
    },
    "short_description": "Experience watching 'Oyaki' (stuffed dumplings) being grilled over a traditional irori hearth.",
    "estimated_duration": "1 hour",
    "rating": 4.5,
    "review_count": 300,
    "min_budget": "¥500"
  },
  {
    "name": "The Fujiya Gohonjin",
    "region": "Chubu",
    "city": "Nagano",
    "prefecture": "Nagano-ken",
    "neighborhood": "Zenkoji",
    "category": "food",
    "coordinates": {
      "lat": 36.6572,
      "lng": 138.1876
    },
    "short_description": "Upscale Italian/Western dining in a stunning historic building that was once an inn for daimyo.",
    "estimated_duration": "2 hours",
    "rating": 4.5,
    "review_count": 800,
    "min_budget": "¥4000"
  },
  {
    "name": "Yawataya Isogoro Main Store",
    "region": "Chubu",
    "city": "Nagano",
    "prefecture": "Nagano-ken",
    "neighborhood": "Zenkoji",
    "category": "food",
    "coordinates": {
      "lat": 36.6573,
      "lng": 138.1877
    },
    "short_description": "Famous shichimi pepper shop with a cafe serving spicy curry and shichimi-flavored sweets.",
    "estimated_duration": "1 hour",
    "rating": 4.3,
    "review_count": 1200,
    "min_budget": "¥1500"
  },
  {
    "name": "Obusedo",
    "region": "Chubu",
    "city": "Obuse",
    "prefecture": "Nagano-ken",
    "neighborhood": "Obuse",
    "category": "food",
    "coordinates": {
      "lat": 36.6953,
      "lng": 138.3162
    },
    "short_description": "Renowned chestnut confectionery famous for 'Suzaku', a seasonal fresh chestnut dessert.",
    "estimated_duration": "1 hour",
    "rating": 4.1,
    "review_count": 1000,
    "min_budget": "¥1500"
  },
  {
    "name": "Kado no Daimaru",
    "region": "Chubu",
    "city": "Nagano",
    "prefecture": "Nagano-ken",
    "neighborhood": "Zenkoji",
    "category": "food",
    "coordinates": {
      "lat": 36.6574,
      "lng": 138.1873
    },
    "short_description": "Historic soba shop established over 300 years ago, located right on the approach to Zenkoji.",
    "estimated_duration": "1 hour",
    "rating": 3.8,
    "review_count": 500,
    "min_budget": "¥1000"
  },
  {
    "name": "Irohado MIDORI Nagano",
    "region": "Chubu",
    "city": "Nagano",
    "prefecture": "Nagano-ken",
    "neighborhood": "Nagano Station",
    "category": "food",
    "coordinates": {
      "lat": 36.643,
      "lng": 138.1877
    },
    "short_description": "Popular Oyaki shop known for its fried-then-baked style, creating a crispy and chewy texture.",
    "estimated_duration": "30 mins",
    "rating": 4.5,
    "review_count": 400,
    "min_budget": "¥500"
  },
  {
    "name": "Sukitei",
    "region": "Chubu",
    "city": "Nagano",
    "prefecture": "Nagano-ken",
    "neighborhood": "Minamichitose",
    "category": "food",
    "coordinates": {
      "lat": 36.6448,
      "lng": 138.1884
    },
    "short_description": "Refined restaurant specializing in Sukiyaki and Shabu-shabu using premium Shinshu beef.",
    "estimated_duration": "2 hours",
    "rating": 4.4,
    "review_count": 300,
    "min_budget": "¥6000"
  },
  {
    "name": "Nagano Meijitei",
    "region": "Chubu",
    "city": "Nagano",
    "prefecture": "Nagano-ken",
    "neighborhood": "Nagano Station",
    "category": "food",
    "coordinates": {
      "lat": 36.643,
      "lng": 138.1877
    },
    "short_description": "Famous for Sauce Katsudon (pork cutlet bowl), a hearty local specialty from Komagane.",
    "estimated_duration": "1 hour",
    "rating": 4.1,
    "review_count": 500,
    "min_budget": "¥1500"
  },
  {
    "name": "Wagyu Yakiniku Shinshu Sodachi",
    "region": "Chubu",
    "city": "Nagano",
    "prefecture": "Nagano-ken",
    "neighborhood": "Nagano Station",
    "category": "food",
    "coordinates": {
      "lat": 36.6439,
      "lng": 138.1867
    },
    "short_description": "Yakiniku restaurant offering high-quality Shinshu Wagyu and local ingredients near the station.",
    "estimated_duration": "1.5 hours",
    "rating": 3.7,
    "review_count": 200,
    "min_budget": "¥5000"
  },
  {
    "name": "Beni-Beni",
    "region": "Chubu",
    "city": "Nagano",
    "prefecture": "Nagano-ken",
    "neighborhood": "Zenkoji",
    "category": "food",
    "coordinates": {
      "lat": 36.6587,
      "lng": 138.1875
    },
    "short_description": "Bakery specializing in freshly baked apple pies using delicious Shinshu apples.",
    "estimated_duration": "20 mins",
    "rating": 4.5,
    "review_count": 300,
    "min_budget": "¥500"
  },
  {
    "name": "Monzen Terrace Enya",
    "region": "Chubu",
    "city": "Nagano",
    "prefecture": "Nagano-ken",
    "neighborhood": "Zenkoji",
    "category": "food",
    "coordinates": {
      "lat": 36.6559,
      "lng": 138.1879
    },
    "short_description": "Modern Japanese restaurant with terrace seating, offering sushi rolls and local cuisine.",
    "estimated_duration": "1.5 hours",
    "rating": 4.1,
    "review_count": 400,
    "min_budget": "¥2000"
  },
  {
    "name": "Shinshu Meat Center",
    "region": "Chubu",
    "city": "Nagano",
    "prefecture": "Nagano-ken",
    "neighborhood": "Nagano Station",
    "category": "food",
    "coordinates": {
      "lat": 36.6455,
      "lng": 138.1874
    },
    "short_description": "Yakiniku spot focusing on diverse cuts of Shinshu beef and game meat.",
    "estimated_duration": "2 hours",
    "rating": 4.0,
    "review_count": 100,
    "min_budget": "¥4000"
  }
]
