[
  {
    "name": "Atsuta Horaiken Honten",
    "region": "Chubu",
    "city": "Nagoya",
    "prefecture": "Aichi-ken",
    "neighborhood": "Atsuta",
    "category": "food",
    "coordinates": {
      "lat": 35.1202,
      "lng": 136.9069
    },
    "short_description": "The birthplace of 'Hitsumabushi', the famous chopped grilled eel rice bowl eaten in three ways.",
    "estimated_duration": "1.5-2 hours",
    "rating": 4.4,
    "review_count": 4000,
    "min_budget": "¥4000"
  },
  {
    "name": "Misokatsu Yabaton Yaba-cho Honten",
    "region": "Chubu",
    "city": "Nagoya",
    "prefecture": "Aichi-ken",
    "neighborhood": "Osu/Yaba-cho",
    "category": "food",
    "coordinates": {
      "lat": 35.1617,
      "lng": 136.9062
    },
    "short_description": "Iconic restaurant famous for Miso Katsu, pork cutlet drenched in a rich red miso sauce.",
    "estimated_duration": "1 hour",
    "rating": 4.1,
    "review_count": 5000,
    "min_budget": "¥1500"
  },
  {
    "name": "Yamamotoya Honten Sakae",
    "region": "Chubu",
    "city": "Nagoya",
    "prefecture": "Aichi-ken",
    "neighborhood": "Sakae",
    "category": "food",
    "coordinates": {
      "lat": 35.1692,
      "lng": 136.9064
    },
    "short_description": "Specialty shop for Miso Nikomi Udon, featuring extremely firm noodles simmered in hatcho miso broth.",
    "estimated_duration": "1 hour",
    "rating": 3.9,
    "review_count": 1500,
    "min_budget": "¥2000"
  },
  {
    "name": "Misen Imaike Honten",
    "region": "Chubu",
    "city": "Nagoya",
    "prefecture": "Aichi-ken",
    "neighborhood": "Chikusa",
    "category": "food",
    "coordinates": {
      "lat": 35.1679,
      "lng": 136.9359
    },
    "short_description": "The originator of 'Taiwan Ramen', a spicy noodle dish topped with minced meat and garlic chives.",
    "estimated_duration": "1 hour",
    "rating": 4.0,
    "review_count": 3200,
    "min_budget": "¥1000"
  },
  {
    "name": "Sekai no Yamachan Honten",
    "region": "Chubu",
    "city": "Nagoya",
    "prefecture": "Aichi-ken",
    "neighborhood": "Sakae",
    "category": "food",
    "coordinates": {
      "lat": 35.168,
      "lng": 136.9134
    },
    "short_description": "Famous izakaya chain known for 'Maboroshi no Tebasaki', peppery fried chicken wings.",
    "estimated_duration": "1.5 hours",
    "rating": 3.9,
    "review_count": 1000,
    "min_budget": "¥2500"
  },
  {
    "name": "Konparu Osu",
    "region": "Chubu",
    "city": "Nagoya",
    "prefecture": "Aichi-ken",
    "neighborhood": "Osu",
    "category": "food",
    "coordinates": {
      "lat": 35.1594,
      "lng": 136.9047
    },
    "short_description": "Retro kissaten famous for its substantial Ebi (Shrimp) Fry Sandwich and Ogura Toast.",
    "estimated_duration": "1 hour",
    "rating": 4.2,
    "review_count": 1200,
    "min_budget": "¥1000"
  },
  {
    "name": "Coffee Shop Kako Hanaguruma",
    "region": "Chubu",
    "city": "Nagoya",
    "prefecture": "Aichi-ken",
    "neighborhood": "Meieki",
    "category": "food",
    "coordinates": {
      "lat": 35.1719,
      "lng": 136.8906
    },
    "short_description": "Nagoya's first自家-roasting coffee shop, famous for its colorful confiture Ogura toast breakfast.",
    "estimated_duration": "1 hour",
    "rating": 4.3,
    "review_count": 1600,
    "min_budget": "¥800"
  },
  {
    "name": "Miya Kishimen Jingu",
    "region": "Chubu",
    "city": "Nagoya",
    "prefecture": "Aichi-ken",
    "neighborhood": "Atsuta",
    "category": "food",
    "coordinates": {
      "lat": 35.1256,
      "lng": 136.9088
    },
    "short_description": "Open-air noodle shop located within the sacred grounds of Atsuta Shrine, serving flat Kishimen noodles.",
    "estimated_duration": "45 mins",
    "rating": 4.1,
    "review_count": 1200,
    "min_budget": "¥900"
  },
  {
    "name": "Spaghetti House Yokoi Sumiyoshi",
    "region": "Chubu",
    "city": "Nagoya",
    "prefecture": "Aichi-ken",
    "neighborhood": "Sakae",
    "category": "food",
    "coordinates": {
      "lat": 35.1667,
      "lng": 136.9056
    },
    "short_description": "The birthplace of 'Ankake Spaghetti', thick pasta topped with a spicy, starchy tomato-based sauce.",
    "estimated_duration": "1 hour",
    "rating": 4.0,
    "review_count": 1100,
    "min_budget": "¥1000"
  },
  {
    "name": "Yanagibashi Central Market",
    "region": "Chubu",
    "city": "Nagoya",
    "prefecture": "Aichi-ken",
    "neighborhood": "Meieki",
    "category": "food",
    "coordinates": {
      "lat": 35.1699,
      "lng": 136.888
    },
    "short_description": "Known as 'Nagoya's Kitchen', offering fresh seafood stalls and sushi restaurants open from early morning.",
    "estimated_duration": "1.5 hours",
    "rating": 4.0,
    "review_count": 2500,
    "min_budget": "¥2000"
  },
  {
    "name": "Menya Hanabi Takabata Honten",
    "region": "Chubu",
    "city": "Nagoya",
    "prefecture": "Aichi-ken",
    "neighborhood": "Nakagawa",
    "category": "food",
    "coordinates": {
      "lat": 35.1433,
      "lng": 136.8522
    },
    "short_description": "The originator of 'Taiwan Mazesoba', a brothless noodle dish with spicy mince, egg yolk, and garlic.",
    "estimated_duration": "1 hour",
    "rating": 4.1,
    "review_count": 900,
    "min_budget": "¥1000"
  },
  {
    "name": "Ibasho",
    "region": "Chubu",
    "city": "Nagoya",
    "prefecture": "Aichi-ken",
    "neighborhood": "Sakae",
    "category": "food",
    "coordinates": {
      "lat": 35.1689,
      "lng": 136.9083
    },
    "short_description": "Historic eel restaurant offering a quieter, more traditional Hitsumabushi experience with green tea chazuke.",
    "estimated_duration": "1.5 hours",
    "rating": 4.2,
    "review_count": 800,
    "min_budget": "¥3500"
  },
  {
    "name": "Kishimen Sumiyoshi",
    "region": "Chubu",
    "city": "Nagoya",
    "prefecture": "Aichi-ken",
    "neighborhood": "Nagoya Station",
    "category": "food",
    "coordinates": {
      "lat": 35.1709,
      "lng": 136.8815
    },
    "short_description": "Famous standing noodle shop on the Shinkansen/JR platform, beloved for its quick and tasty Kishimen.",
    "estimated_duration": "20 mins",
    "rating": 3.9,
    "review_count": 2200,
    "min_budget": "¥600"
  },
  {
    "name": "Furaibo Sakae",
    "region": "Chubu",
    "city": "Nagoya",
    "prefecture": "Aichi-ken",
    "neighborhood": "Sakae",
    "category": "food",
    "coordinates": {
      "lat": 35.1689,
      "lng": 136.9083
    },
    "short_description": "The original creator of Nagoya-style Tebasaki (chicken wings), offering a slightly sweeter glaze than Yamachan.",
    "estimated_duration": "1.5 hours",
    "rating": 3.9,
    "review_count": 950,
    "min_budget": "¥2500"
  },
  {
    "name": "Unagi Shirakawa Sakae Gas Bldg",
    "region": "Chubu",
    "city": "Nagoya",
    "prefecture": "Aichi-ken",
    "neighborhood": "Sakae",
    "category": "food",
    "coordinates": {
      "lat": 35.1661,
      "lng": 136.9067
    },
    "short_description": "Popular Hitsumabushi restaurant offering high-quality eel at a relatively accessible price point.",
    "estimated_duration": "1.5 hours",
    "rating": 4.2,
    "review_count": 1000,
    "min_budget": "¥3000"
  },
  {
    "name": "Tenmusu Senju",
    "region": "Chubu",
    "city": "Nagoya",
    "prefecture": "Aichi-ken",
    "neighborhood": "Osu",
    "category": "food",
    "coordinates": {
      "lat": 35.16,
      "lng": 136.9067
    },
    "short_description": "Famous for Tenmusu, bite-sized rice balls with a savory shrimp tempura filling.",
    "estimated_duration": "30 mins",
    "rating": 3.7,
    "review_count": 500,
    "min_budget": "¥800"
  },
  {
    "name": "Chez Shibata Nagoya",
    "region": "Chubu",
    "city": "Nagoya",
    "prefecture": "Aichi-ken",
    "neighborhood": "Kakuozan",
    "category": "food",
    "coordinates": {
      "lat": 35.1639,
      "lng": 136.9531
    },
    "short_description": "World-class patisserie led by Chef Takeshi Shibata, known for visually stunning and rich cakes.",
    "estimated_duration": "1 hour",
    "rating": 4.0,
    "review_count": 800,
    "min_budget": "¥1500"
  },
  {
    "name": "Nagoya Cochin Ichio Nishiki",
    "region": "Chubu",
    "city": "Nagoya",
    "prefecture": "Aichi-ken",
    "neighborhood": "Sakae",
    "category": "food",
    "coordinates": {
      "lat": 35.1719,
      "lng": 136.9064
    },
    "short_description": "Specializes in Nagoya Cochin, the premium local chicken breed, served as sashimi, nabe, or grilled.",
    "estimated_duration": "2 hours",
    "rating": 3.9,
    "review_count": 300,
    "min_budget": "¥5000"
  },
  {
    "name": "Osu Shopping District",
    "region": "Chubu",
    "city": "Nagoya",
    "prefecture": "Aichi-ken",
    "neighborhood": "Osu",
    "category": "food",
    "coordinates": {
      "lat": 35.1598,
      "lng": 136.9038
    },
    "short_description": "Vibrant shopping arcade famous for street food like Agemanjyu, Karaage, and bubble tea.",
    "estimated_duration": "2 hours",
    "rating": 4.1,
    "review_count": 8000,
    "min_budget": "¥1000"
  }
]
