[
  {
    "name": "Wa Yamamura",
    "region": "Kansai",
    "city": "Nara",
    "prefecture": "Nara-ken",
    "neighborhood": "Shin-Omiya",
    "category": "food",
    "coordinates": {
      "lat": 34.6858,
      "lng": 135.8128
    },
    "short_description": "Three-Michelin-starred kaiseki restaurant serving exquisite seasonal dishes in a warm, unpretentious setting.",
    "estimated_duration": "2.5-3 hours",
    "rating": 4.6,
    "review_count": 400,
    "min_budget": "¥15000"
  },
  {
    "name": "Kikusuiro",
    "region": "Kansai",
    "city": "Nara",
    "prefecture": "Nara-ken",
    "neighborhood": "Nara Park",
    "category": "food",
    "coordinates": {
      "lat": 34.6817,
      "lng": 135.8342
    },
    "short_description": "Historic ryotei established in 1891, famous for its elegant kaiseki and dedicated unagi (eel) restaurant.",
    "estimated_duration": "2 hours",
    "rating": 4.4,
    "review_count": 600,
    "min_budget": "¥10000"
  },
  {
    "name": "Awa Naramachi",
    "region": "Kansai",
    "city": "Nara",
    "prefecture": "Nara-ken",
    "neighborhood": "Naramachi",
    "category": "food",
    "coordinates": {
      "lat": 34.6786,
      "lng": 135.8305
    },
    "short_description": "Renowned for its 'Yamato' heirloom vegetables and Yamato beef served in a beautifully restored machiya.",
    "estimated_duration": "2 hours",
    "rating": 4.5,
    "review_count": 450,
    "min_budget": "¥6000"
  },
  {
    "name": "Tsukihitei",
    "region": "Kansai",
    "city": "Nara",
    "prefecture": "Nara-ken",
    "neighborhood": "Kasugano",
    "category": "food",
    "coordinates": {
      "lat": 34.6865,
      "lng": 135.8455
    },
    "short_description": "Exclusive ryotei located deep within the Kasugayama Primeval Forest, offering a serene kaiseki experience.",
    "estimated_duration": "2-3 hours",
    "rating": 4.3,
    "review_count": 150,
    "min_budget": "¥15000"
  },
  {
    "name": "Nakatanidou",
    "region": "Kansai",
    "city": "Nara",
    "prefecture": "Nara-ken",
    "neighborhood": "Sanjo",
    "category": "food",
    "coordinates": {
      "lat": 34.6819,
      "lng": 135.8288
    },
    "short_description": "Famous for its high-speed mochi pounding performances and soft, fresh yomogi (mugwort) mochi.",
    "estimated_duration": "15 mins",
    "rating": 4.6,
    "review_count": 8000,
    "min_budget": "¥200"
  },
  {
    "name": "Kakinoha Sushi Hiraso",
    "region": "Kansai",
    "city": "Nara",
    "prefecture": "Nara-ken",
    "neighborhood": "Naramachi",
    "category": "food",
    "coordinates": {
      "lat": 34.6795,
      "lng": 135.8308
    },
    "short_description": "Long-established shop serving Nara's signature persimmon leaf-wrapped sushi (kakinoha-zushi).",
    "estimated_duration": "1 hour",
    "rating": 4.2,
    "review_count": 500,
    "min_budget": "¥1500"
  },
  {
    "name": "Izasa Todaiji",
    "region": "Kansai",
    "city": "Nara",
    "prefecture": "Nara-ken",
    "neighborhood": "Nara Park",
    "category": "food",
    "coordinates": {
      "lat": 34.6845,
      "lng": 135.8375
    },
    "short_description": "Popular restaurant near Todaiji Temple serving kakinoha-zushi and miwa somen sets.",
    "estimated_duration": "1 hour",
    "rating": 4.0,
    "review_count": 600,
    "min_budget": "¥1500"
  },
  {
    "name": "Kamameshi Shizuka Kouen-ten",
    "region": "Kansai",
    "city": "Nara",
    "prefecture": "Nara-ken",
    "neighborhood": "Nara Park",
    "category": "food",
    "coordinates": {
      "lat": 34.6843,
      "lng": 135.8369
    },
    "short_description": "Legendary queue-worthy spot for kamameshi (iron pot rice) featuring seasonal ingredients like oysters or crab.",
    "estimated_duration": "1-1.5 hours",
    "rating": 4.1,
    "review_count": 2500,
    "min_budget": "¥1800"
  },
  {
    "name": "Menya Noroma",
    "region": "Kansai",
    "city": "Nara",
    "prefecture": "Nara-ken",
    "neighborhood": "Kyobate",
    "category": "food",
    "coordinates": {
      "lat": 34.6655,
      "lng": 135.8285
    },
    "short_description": "Top-rated ramen shop famous for its rich yet smooth chicken paitan broth; expect a line.",
    "estimated_duration": "1 hour",
    "rating": 4.3,
    "review_count": 1800,
    "min_budget": "¥1000"
  },
  {
    "name": "Ramen Mitsuba",
    "region": "Kansai",
    "city": "Nara",
    "prefecture": "Nara-ken",
    "neighborhood": "Tomio",
    "category": "food",
    "coordinates": {
      "lat": 34.6965,
      "lng": 135.7535
    },
    "short_description": "Iconic ramen shop known for its frothy 'cappuccino' chicken and pork broth.",
    "estimated_duration": "1 hour",
    "rating": 4.4,
    "review_count": 2000,
    "min_budget": "¥1000"
  },
  {
    "name": "Saika Ramen Honten",
    "region": "Kansai",
    "city": "Tenri",
    "prefecture": "Nara-ken",
    "neighborhood": "Tenri",
    "category": "food",
    "coordinates": {
      "lat": 34.6055,
      "lng": 135.8285
    },
    "short_description": "The birthplace of 'Tenri Ramen' – a spicy, garlic-heavy soy sauce ramen topped with Chinese cabbage.",
    "estimated_duration": "1 hour",
    "rating": 4.1,
    "review_count": 3500,
    "min_budget": "¥800"
  },
  {
    "name": "Tenri Stamina Ramen Honten",
    "region": "Kansai",
    "city": "Tenri",
    "prefecture": "Nara-ken",
    "neighborhood": "Tenri",
    "category": "food",
    "coordinates": {
      "lat": 34.6075,
      "lng": 135.8455
    },
    "short_description": "Another legendary spot for spicy, garlicky 'stamina' ramen that energizes locals and tourists alike.",
    "estimated_duration": "1 hour",
    "rating": 3.9,
    "review_count": 1500,
    "min_budget": "¥800"
  },
  {
    "name": "Maguro Koya",
    "region": "Kansai",
    "city": "Nara",
    "prefecture": "Nara-ken",
    "neighborhood": "Hanashibacho",
    "category": "food",
    "coordinates": {
      "lat": 34.6854,
      "lng": 135.8289
    },
    "short_description": "Rustic, hole-in-the-wall eatery beloved for its generous and affordable tuna sashmi bowls.",
    "estimated_duration": "1 hour",
    "rating": 4.5,
    "review_count": 1200,
    "min_budget": "¥1500"
  },
  {
    "name": "Kamaiki",
    "region": "Kansai",
    "city": "Nara",
    "prefecture": "Nara-ken",
    "neighborhood": "Higashimuki",
    "category": "food",
    "coordinates": {
      "lat": 34.6829,
      "lng": 135.8288
    },
    "short_description": "Michelin Bib Gourmand udon shop serving chewy noodles with creative toppings and tempura.",
    "estimated_duration": "1 hour",
    "rating": 4.4,
    "review_count": 600,
    "min_budget": "¥1200"
  },
  {
    "name": "Men Touan",
    "region": "Kansai",
    "city": "Nara",
    "prefecture": "Nara-ken",
    "neighborhood": "Mochiidono",
    "category": "food",
    "coordinates": {
      "lat": 34.6805,
      "lng": 135.8285
    },
    "short_description": "Famous for 'Kinchaku Kitsune Udon', where the noodles are hidden inside a giant fried tofu pouch.",
    "estimated_duration": "1 hour",
    "rating": 4.2,
    "review_count": 1500,
    "min_budget": "¥1000"
  },
  {
    "name": "Housekibako",
    "region": "Kansai",
    "city": "Nara",
    "prefecture": "Nara-ken",
    "neighborhood": "Mochiidono",
    "category": "food",
    "coordinates": {
      "lat": 34.6801,
      "lng": 135.8289
    },
    "short_description": "Extremely popular kakigori (shaved ice) shop serving delicate, fluffy ice with seasonal fruit syrups.",
    "estimated_duration": "1 hour",
    "rating": 4.4,
    "review_count": 800,
    "min_budget": "¥1200"
  },
  {
    "name": "Rokumei Coffee",
    "region": "Kansai",
    "city": "Nara",
    "prefecture": "Nara-ken",
    "neighborhood": "Nara Station",
    "category": "food",
    "coordinates": {
      "lat": 34.6825,
      "lng": 135.8265
    },
    "short_description": "Award-winning specialty coffee roaster offering exceptional hand-drip coffee and croissants.",
    "estimated_duration": "45 mins",
    "rating": 4.5,
    "review_count": 1100,
    "min_budget": "¥600"
  },
  {
    "name": "Miyake Kyukonoiketei",
    "region": "Kansai",
    "city": "Nara",
    "prefecture": "Nara-ken",
    "neighborhood": "Tomio",
    "category": "food",
    "coordinates": {
      "lat": 34.7035,
      "lng": 135.7485
    },
    "short_description": "Elegant cafe housed in an old samurai residence, famous for its high-quality Japanese sweets and matcha.",
    "estimated_duration": "1.5 hours",
    "rating": 4.4,
    "review_count": 600,
    "min_budget": "¥1000"
  },
  {
    "name": "Kura",
    "region": "Kansai",
    "city": "Nara",
    "prefecture": "Nara-ken",
    "neighborhood": "Naramachi",
    "category": "food",
    "coordinates": {
      "lat": 34.6797,
      "lng": 135.8287
    },
    "short_description": "Friendly izakaya in Naramachi with a great sake selection and creative small plates.",
    "estimated_duration": "2 hours",
    "rating": 4.5,
    "review_count": 300,
    "min_budget": "¥4000"
  },
  {
    "name": "Edogawa Naramachi",
    "region": "Kansai",
    "city": "Nara",
    "prefecture": "Nara-ken",
    "neighborhood": "Naramachi",
    "category": "food",
    "coordinates": {
      "lat": 34.6785,
      "lng": 135.8295
    },
    "short_description": "Traditional restaurant located in a renovated kimono shop, specializing in soft, Kanto-style eel.",
    "estimated_duration": "1.5 hours",
    "rating": 4.3,
    "review_count": 900,
    "min_budget": "¥3500"
  },
  {
    "name": "Unagino Toyokawa",
    "region": "Kansai",
    "city": "Nara",
    "prefecture": "Nara-ken",
    "neighborhood": "Tomio",
    "category": "food",
    "coordinates": {
      "lat": 34.6955,
      "lng": 135.7538
    },
    "short_description": "Michelin-starred unagi restaurant serving crisp, Kansai-style grilled eel; reservations essential.",
    "estimated_duration": "1.5 hours",
    "rating": 4.5,
    "review_count": 400,
    "min_budget": "¥5000"
  },
  {
    "name": "Senjutei",
    "region": "Kansai",
    "city": "Sakurai",
    "prefecture": "Nara-ken",
    "neighborhood": "Miwa",
    "category": "food",
    "coordinates": {
      "lat": 34.5295,
      "lng": 135.8525
    },
    "short_description": "The premier spot for authentic Miwa Somen, serving ultra-thin hand-stretched noodles in a refined setting.",
    "estimated_duration": "1.5 hours",
    "rating": 4.3,
    "review_count": 800,
    "min_budget": "¥1500"
  },
  {
    "name": "Mizutani Chaya",
    "region": "Kansai",
    "city": "Nara",
    "prefecture": "Nara-ken",
    "neighborhood": "Nara Park",
    "category": "food",
    "coordinates": {
      "lat": 34.6862,
      "lng": 135.8445
    },
    "short_description": "Picture-perfect thatched-roof tea house in the park, serving udon and warabi mochi.",
    "estimated_duration": "45 mins",
    "rating": 4.3,
    "review_count": 1200,
    "min_budget": "¥1000"
  },
  {
    "name": "Nino",
    "region": "Kansai",
    "city": "Nara",
    "prefecture": "Nara-ken",
    "neighborhood": "Nara Station",
    "category": "food",
    "coordinates": {
      "lat": 34.6822,
      "lng": 135.8275
    },
    "short_description": "Warm, family-run Italian restaurant beloved by tourists for its friendly service and delicious pasta.",
    "estimated_duration": "1.5 hours",
    "rating": 4.7,
    "review_count": 1500,
    "min_budget": "¥2500"
  },
  {
    "name": "Sakura Burger",
    "region": "Kansai",
    "city": "Nara",
    "prefecture": "Nara-ken",
    "neighborhood": "Nara Station",
    "category": "food",
    "coordinates": {
      "lat": 34.6835,
      "lng": 135.8255
    },
    "short_description": "Popular burger joint serving thick, juicy patties made with local ingredients and house-smoked bacon.",
    "estimated_duration": "1 hour",
    "rating": 4.4,
    "review_count": 1300,
    "min_budget": "¥1500"
  },
  {
    "name": "Kana Kana",
    "region": "Kansai",
    "city": "Nara",
    "prefecture": "Nara-ken",
    "neighborhood": "Naramachi",
    "category": "food",
    "coordinates": {
      "lat": 34.6765,
      "lng": 135.8315
    },
    "short_description": "Charming machiya cafe famous for its 'Kana Kana Gohan', a healthy and delicious Japanese lunch set.",
    "estimated_duration": "1 hour",
    "rating": 4.3,
    "review_count": 800,
    "min_budget": "¥1500"
  },
  {
    "name": "Tou no Chaya",
    "region": "Kansai",
    "city": "Nara",
    "prefecture": "Nara-ken",
    "neighborhood": "Nara Park",
    "category": "food",
    "coordinates": {
      "lat": 34.6828,
      "lng": 135.8325
    },
    "short_description": "Historic tea house near Kofukuji Pagoda serving 'Chagayu' (tea porridge), a traditional Nara breakfast dish.",
    "estimated_duration": "1 hour",
    "rating": 4.1,
    "review_count": 300,
    "min_budget": "¥2500"
  },
  {
    "name": "Kashiya",
    "region": "Kansai",
    "city": "Nara",
    "prefecture": "Nara-ken",
    "neighborhood": "Naramachi",
    "category": "food",
    "coordinates": {
      "lat": 34.6782,
      "lng": 135.8302
    },
    "short_description": "Traditional Japanese sweet shop offering exquisite seasonal wagashi and matcha in a wooden townhouse.",
    "estimated_duration": "1 hour",
    "rating": 4.5,
    "review_count": 400,
    "min_budget": "¥1000"
  },
  {
    "name": "Mahoroba Daibutsu Pudding",
    "region": "Kansai",
    "city": "Nara",
    "prefecture": "Nara-ken",
    "neighborhood": "Nara Station",
    "category": "food",
    "coordinates": {
      "lat": 34.6815,
      "lng": 135.8278
    },
    "short_description": "Famous dessert shop selling creamy custard pudding in iconic glass jars; a must-buy souvenir.",
    "estimated_duration": "15 mins",
    "rating": 4.3,
    "review_count": 1000,
    "min_budget": "¥500"
  },
  {
    "name": "Kameya",
    "region": "Kansai",
    "city": "Nara",
    "prefecture": "Nara-ken",
    "neighborhood": "Naramachi",
    "category": "food",
    "coordinates": {
      "lat": 34.6818,
      "lng": 135.8292
    },
    "short_description": "Local favorite for okonomiyaki and yakisoba, known for its friendly owners and English menu.",
    "estimated_duration": "1 hour",
    "rating": 4.4,
    "review_count": 600,
    "min_budget": "¥1500"
  },
  {
    "name": "Yamatuan",
    "region": "Kansai",
    "city": "Nara",
    "prefecture": "Nara-ken",
    "neighborhood": "Nara Station",
    "category": "food",
    "coordinates": {
      "lat": 34.6825,
      "lng": 135.8245
    },
    "short_description": "Izakaya specializing in local Nara ingredients like Yamato chicken and vegetables.",
    "estimated_duration": "1.5 hours",
    "rating": 4.0,
    "review_count": 500,
    "min_budget": "¥3000"
  },
  {
    "name": "Terakawa",
    "region": "Kansai",
    "city": "Nara",
    "prefecture": "Nara-ken",
    "neighborhood": "Naramachi",
    "category": "food",
    "coordinates": {
      "lat": 34.6775,
      "lng": 135.8298
    },
    "short_description": "Fine dining restaurant serving Kappo-style cuisine with a focus on seasonal Nara produce.",
    "estimated_duration": "2 hours",
    "rating": 4.6,
    "review_count": 150,
    "min_budget": "¥8000"
  },
  {
    "name": "Sobadokoro Kitahara",
    "region": "Kansai",
    "city": "Nara",
    "prefecture": "Nara-ken",
    "neighborhood": "Naramachi",
    "category": "food",
    "coordinates": {
      "lat": 34.6788,
      "lng": 135.8312
    },
    "short_description": "Hidden soba noodle shop in a traditional house, known for its 100% buckwheat noodles (juwari soba).",
    "estimated_duration": "1 hour",
    "rating": 4.3,
    "review_count": 200,
    "min_budget": "¥1500"
  },
  {
    "name": "Kasuga Ninai Jaya",
    "region": "Kansai",
    "city": "Nara",
    "prefecture": "Nara-ken",
    "neighborhood": "Nara Park",
    "category": "food",
    "coordinates": {
      "lat": 34.6828,
      "lng": 135.8455
    },
    "short_description": "Rest house within Kasuga Taisha Shrine serving 'Manyo-gayu', a seasonal rice porridge.",
    "estimated_duration": "45 mins",
    "rating": 4.1,
    "review_count": 500,
    "min_budget": "¥1000"
  },
  {
    "name": "Akordu",
    "region": "Kansai",
    "city": "Nara",
    "prefecture": "Nara-ken",
    "neighborhood": "Nara Park",
    "category": "food",
    "coordinates": {
      "lat": 34.6855,
      "lng": 135.8395
    },
    "short_description": "Two-Michelin-starred modern Spanish cuisine using Nara ingredients, located on the edge of Nara Park.",
    "estimated_duration": "2.5 hours",
    "rating": 4.5,
    "review_count": 300,
    "min_budget": "¥15000"
  },
  {
    "name": "La Trace",
    "region": "Kansai",
    "city": "Nara",
    "prefecture": "Nara-ken",
    "neighborhood": "Takabatake",
    "category": "food",
    "coordinates": {
      "lat": 34.6805,
      "lng": 135.8355
    },
    "short_description": "Intimate one-Michelin-star French restaurant focusing on pure flavors and local suppliers.",
    "estimated_duration": "2 hours",
    "rating": 4.6,
    "review_count": 100,
    "min_budget": "¥12000"
  },
  {
    "name": "Pizzeria e Trattoria Magazzino",
    "region": "Kansai",
    "city": "Kashiba",
    "prefecture": "Nara-ken",
    "neighborhood": "Kashiba",
    "category": "food",
    "coordinates": {
      "lat": 34.5425,
      "lng": 135.7055
    },
    "short_description": "Famous Bib Gourmand pizzeria offering authentic Neapolitan pizza using local Nara vegetables.",
    "estimated_duration": "1.5 hours",
    "rating": 4.4,
    "review_count": 800,
    "min_budget": "¥2000"
  },
  {
    "name": "Yamaoka Pizza",
    "region": "Kansai",
    "city": "Ikoma",
    "prefecture": "Nara-ken",
    "neighborhood": "Ikoma",
    "category": "food",
    "coordinates": {
      "lat": 34.6885,
      "lng": 135.6985
    },
    "short_description": "Rustic pizzeria located on a mountain in Ikoma with stunning views and wood-fired pizzas.",
    "estimated_duration": "1.5 hours",
    "rating": 4.5,
    "review_count": 600,
    "min_budget": "¥2500"
  },
  {
    "name": "Karamell",
    "region": "Kansai",
    "city": "Nara",
    "prefecture": "Nara-ken",
    "neighborhood": "Naramachi",
    "category": "food",
    "coordinates": {
      "lat": 34.6772,
      "lng": 135.8305
    },
    "short_description": "Cozy cafe popular for its homemade cakes and relaxed atmosphere in a quiet corner of Naramachi.",
    "estimated_duration": "1 hour",
    "rating": 4.3,
    "review_count": 300,
    "min_budget": "¥1000"
  },
  {
    "name": "Cafe Zucca",
    "region": "Kansai",
    "city": "Nara",
    "prefecture": "Nara-ken",
    "neighborhood": "Takabatake",
    "category": "food",
    "coordinates": {
      "lat": 34.6795,
      "lng": 135.8365
    },
    "short_description": "Specialty cafe dedicated to pumpkin (kabocha) dishes and desserts.",
    "estimated_duration": "1 hour",
    "rating": 4.2,
    "review_count": 200,
    "min_budget": "¥1200"
  },
  {
    "name": "Mellow Cafe",
    "region": "Kansai",
    "city": "Nara",
    "prefecture": "Nara-ken",
    "neighborhood": "Nara Station",
    "category": "food",
    "coordinates": {
      "lat": 34.6828,
      "lng": 135.8262
    },
    "short_description": "Spacious, relaxed cafe with a tropical vibe, serving pizza and coffee; great for resting tired feet.",
    "estimated_duration": "1 hour",
    "rating": 4.0,
    "review_count": 500,
    "min_budget": "¥1000"
  },
  {
    "name": "Harishin",
    "region": "Kansai",
    "city": "Nara",
    "prefecture": "Nara-ken",
    "neighborhood": "Naramachi",
    "category": "food",
    "coordinates": {
      "lat": 34.6778,
      "lng": 135.8318
    },
    "short_description": "Traditional restaurant in a cultural property building serving Kamitsumichi Bento boxes.",
    "estimated_duration": "1 hour",
    "rating": 4.2,
    "review_count": 250,
    "min_budget": "¥2500"
  },
  {
    "name": "Makanai Kitchen Kura",
    "region": "Kansai",
    "city": "Nara",
    "prefecture": "Nara-ken",
    "neighborhood": "Nara Station",
    "category": "food",
    "coordinates": {
      "lat": 34.6812,
      "lng": 135.8235
    },
    "short_description": "Hidden local izakaya offering hearty home-style cooking and sake.",
    "estimated_duration": "1.5 hours",
    "rating": 4.1,
    "review_count": 150,
    "min_budget": "¥3000"
  },
  {
    "name": "Surugamachi no Okonomiyakiya",
    "region": "Kansai",
    "city": "Nara",
    "prefecture": "Nara-ken",
    "neighborhood": "Nara Station",
    "category": "food",
    "coordinates": {
      "lat": 34.6832,
      "lng": 135.8238
    },
    "short_description": "Authentic okonomiyaki shop run by a friendly owner, popular for its pork and squid pancakes.",
    "estimated_duration": "1 hour",
    "rating": 4.3,
    "review_count": 200,
    "min_budget": "¥1500"
  },
  {
    "name": "Toi Inshokuten",
    "region": "Kansai",
    "city": "Nara",
    "prefecture": "Nara-ken",
    "neighborhood": "Nara Station",
    "category": "food",
    "coordinates": {
      "lat": 34.6852,
      "lng": 135.8282
    },
    "short_description": "Unique curry shop serving Indian-inspired spice curries in a Japanese setting; Michelin Bib Gourmand.",
    "estimated_duration": "1 hour",
    "rating": 4.3,
    "review_count": 300,
    "min_budget": "¥1200"
  },
  {
    "name": "Wakasa Curry Honpo",
    "region": "Kansai",
    "city": "Nara",
    "prefecture": "Nara-ken",
    "neighborhood": "Nara Park",
    "category": "food",
    "coordinates": {
      "lat": 34.6826,
      "lng": 135.8291
    },
    "short_description": "Specialty curry shop known for its 'Wakakusa Curry', a spinach and tomato-based curry.",
    "estimated_duration": "45 mins",
    "rating": 4.1,
    "review_count": 400,
    "min_budget": "¥1000"
  },
  {
    "name": "Tsukemen Mushin",
    "region": "Kansai",
    "city": "Nara",
    "prefecture": "Nara-ken",
    "neighborhood": "Tomio",
    "category": "food",
    "coordinates": {
      "lat": 34.7085,
      "lng": 135.7425
    },
    "short_description": "Rich tonkotsu dipping noodles (tsukemen) shop that draws ramen enthusiasts from across the region.",
    "estimated_duration": "1 hour",
    "rating": 4.2,
    "review_count": 800,
    "min_budget": "¥1000"
  },
  {
    "name": "Menya Ryu",
    "region": "Kansai",
    "city": "Nara",
    "prefecture": "Nara-ken",
    "neighborhood": "Shin-Omiya",
    "category": "food",
    "coordinates": {
      "lat": 34.6858,
      "lng": 135.8085
    },
    "short_description": "Popular ramen spot featuring a flavorful chicken and soy sauce broth.",
    "estimated_duration": "45 mins",
    "rating": 4.0,
    "review_count": 300,
    "min_budget": "¥900"
  },
  {
    "name": "Minami Shokudo",
    "region": "Kansai",
    "city": "Nara",
    "prefecture": "Nara-ken",
    "neighborhood": "Nara Station",
    "category": "food",
    "coordinates": {
      "lat": 34.6805,
      "lng": 135.8205
    },
    "short_description": "Small noodle shop specializing in soup-less 'mazesoba' and spicy tantanmen.",
    "estimated_duration": "45 mins",
    "rating": 4.1,
    "review_count": 250,
    "min_budget": "¥1000"
  },
  {
    "name": "Kakinoha Sushi Honpo Tanaka Nara Station",
    "region": "Kansai",
    "city": "Nara",
    "prefecture": "Nara-ken",
    "neighborhood": "Nara Station",
    "category": "food",
    "coordinates": {
      "lat": 34.6828,
      "lng": 135.8268
    },
    "short_description": "Convenient spot to pick up boxed Kakinoha-zushi for a picnic in Nara Park.",
    "estimated_duration": "15 mins",
    "rating": 4.0,
    "review_count": 300,
    "min_budget": "¥1000"
  }
]
