[
  {
    "name": "Mizuno",
    "region": "Kansai",
    "city": "Osaka",
    "prefecture": "Osaka-fu",
    "neighborhood": "Dotonbori",
    "category": "food",
    "coordinates": {
      "lat": 34.6685,
      "lng": 135.5035
    },
    "short_description": "Michelin Bib Gourmand okonomiyaki restaurant famous for its yam-based 'yamaimo-yaki' which uses no flour.",
    "estimated_duration": "1-1.5 hours",
    "rating": 4.4,
    "review_count": 2800,
    "min_budget": "¥1500"
  },
  {
    "name": "Okonomiyaki Kiji Umeda Sky Building",
    "region": "Kansai",
    "city": "Osaka",
    "prefecture": "Osaka-fu",
    "neighborhood": "Umeda",
    "category": "food",
    "coordinates": {
      "lat": 34.7047,
      "lng": 135.4906
    },
    "short_description": "A beloved okonomiyaki spot hidden in the basement of the Umeda Sky Building, known for its friendly owner and modan-yaki.",
    "estimated_duration": "1-1.5 hours",
    "rating": 4.2,
    "review_count": 1400,
    "min_budget": "¥1500"
  },
  {
    "name": "Fukutaro Honten",
    "region": "Kansai",
    "city": "Osaka",
    "prefecture": "Osaka-fu",
    "neighborhood": "Namba",
    "category": "food",
    "coordinates": {
      "lat": 34.6652,
      "lng": 135.5042
    },
    "short_description": "Popular open-kitchen restaurant specializing in negiyaki (green onion pancakes) and creamy okonomiyaki.",
    "estimated_duration": "1-1.5 hours",
    "rating": 4.3,
    "review_count": 2100,
    "min_budget": "¥2000"
  },
  {
    "name": "Ajinoya Honten",
    "region": "Kansai",
    "city": "Osaka",
    "prefecture": "Osaka-fu",
    "neighborhood": "Namba",
    "category": "food",
    "coordinates": {
      "lat": 34.6688,
      "lng": 135.5015
    },
    "short_description": "Bib Gourmand-recognized shop serving fluffy okonomiyaki and savory yakisoba in a bustling location.",
    "estimated_duration": "1 hour",
    "rating": 4.3,
    "review_count": 2500,
    "min_budget": "¥1500"
  },
  {
    "name": "Chibo Dotonbori",
    "region": "Kansai",
    "city": "Osaka",
    "prefecture": "Osaka-fu",
    "neighborhood": "Dotonbori",
    "category": "food",
    "coordinates": {
      "lat": 34.6682,
      "lng": 135.503
    },
    "short_description": "Famous multi-story okonomiyaki landmark offering a wide variety of teppanyaki dishes and a lively atmosphere.",
    "estimated_duration": "1-1.5 hours",
    "rating": 4.1,
    "review_count": 3200,
    "min_budget": "¥2000"
  },
  {
    "name": "Yukari Sonezaki",
    "region": "Kansai",
    "city": "Osaka",
    "prefecture": "Osaka-fu",
    "neighborhood": "Umeda",
    "category": "food",
    "coordinates": {
      "lat": 34.7015,
      "lng": 135.5005
    },
    "short_description": "Long-standing okonomiyaki chain known for its unique menu items like the 'Fromage Yaki' with five kinds of cheese.",
    "estimated_duration": "1 hour",
    "rating": 4.0,
    "review_count": 900,
    "min_budget": "¥1500"
  },
  {
    "name": "Okaru",
    "region": "Kansai",
    "city": "Osaka",
    "prefecture": "Osaka-fu",
    "neighborhood": "Sennichimae",
    "category": "food",
    "coordinates": {
      "lat": 34.6675,
      "lng": 135.5038
    },
    "short_description": "Retro shop famous for its playful mayonnaise art drawn on top of your okonomiyaki by the staff.",
    "estimated_duration": "1 hour",
    "rating": 4.2,
    "review_count": 850,
    "min_budget": "¥1200"
  },
  {
    "name": "Takoyaki Wanaka Sennichimae",
    "region": "Kansai",
    "city": "Osaka",
    "prefecture": "Osaka-fu",
    "neighborhood": "Namba",
    "category": "food",
    "coordinates": {
      "lat": 34.666,
      "lng": 135.5032
    },
    "short_description": "Iconic stall next to Namba Grand Kagetsu, serving crispy-outside, creamy-inside takoyaki.",
    "estimated_duration": "30 mins",
    "rating": 4.4,
    "review_count": 4500,
    "min_budget": "¥600"
  },
  {
    "name": "Takoyaki Kukuru Dotonbori",
    "region": "Kansai",
    "city": "Osaka",
    "prefecture": "Osaka-fu",
    "neighborhood": "Dotonbori",
    "category": "food",
    "coordinates": {
      "lat": 34.6687,
      "lng": 135.5034
    },
    "short_description": "Famous for its large octopus chunks and 'bikkuri' (surprise) takoyaki with octopus sticking out.",
    "estimated_duration": "30 mins",
    "rating": 4.0,
    "review_count": 2200,
    "min_budget": "¥800"
  },
  {
    "name": "Kogaryu Takoyaki",
    "region": "Kansai",
    "city": "Osaka",
    "prefecture": "Osaka-fu",
    "neighborhood": "Amerikamura",
    "category": "food",
    "coordinates": {
      "lat": 34.6725,
      "lng": 135.4985
    },
    "short_description": "A staple of Amerikamura culture, known for its generous mayonnaise topping and young, hip crowd.",
    "estimated_duration": "20 mins",
    "rating": 4.1,
    "review_count": 3000,
    "min_budget": "¥500"
  },
  {
    "name": "Hanadako",
    "region": "Kansai",
    "city": "Osaka",
    "prefecture": "Osaka-fu",
    "neighborhood": "Umeda",
    "category": "food",
    "coordinates": {
      "lat": 34.7032,
      "lng": 135.4995
    },
    "short_description": "Standing-only counter famous for 'negi-mayo' takoyaki, buried under a mountain of green onions.",
    "estimated_duration": "30 mins",
    "rating": 4.3,
    "review_count": 3800,
    "min_budget": "¥700"
  },
  {
    "name": "Abeno Takoyaki Yamachan",
    "region": "Kansai",
    "city": "Osaka",
    "prefecture": "Osaka-fu",
    "neighborhood": "Tennoji",
    "category": "food",
    "coordinates": {
      "lat": 34.6465,
      "lng": 135.5135
    },
    "short_description": "Renowned for its flavorful broth-infused batter that is delicious even without any sauce.",
    "estimated_duration": "20 mins",
    "rating": 4.3,
    "review_count": 1800,
    "min_budget": "¥600"
  },
  {
    "name": "Aizuya Namba",
    "region": "Kansai",
    "city": "Osaka",
    "prefecture": "Osaka-fu",
    "neighborhood": "Namba",
    "category": "food",
    "coordinates": {
      "lat": 34.6655,
      "lng": 135.501
    },
    "short_description": "The birthplace of takoyaki, serving small, sauce-less balls that highlight the dashi flavor.",
    "estimated_duration": "30 mins",
    "rating": 4.0,
    "review_count": 800,
    "min_budget": "¥600"
  },
  {
    "name": "Takoyaki Juhachiban",
    "region": "Kansai",
    "city": "Osaka",
    "prefecture": "Osaka-fu",
    "neighborhood": "Dotonbori",
    "category": "food",
    "coordinates": {
      "lat": 34.6684,
      "lng": 135.5045
    },
    "short_description": "Unique takoyaki with a crispy texture created by mixing tenkasu (tempura scraps) into the batter.",
    "estimated_duration": "30 mins",
    "rating": 4.2,
    "review_count": 1500,
    "min_budget": "¥700"
  },
  {
    "name": "Kushikatsu Daruma Shinsekai",
    "region": "Kansai",
    "city": "Osaka",
    "prefecture": "Osaka-fu",
    "neighborhood": "Shinsekai",
    "category": "food",
    "coordinates": {
      "lat": 34.652,
      "lng": 135.5062
    },
    "short_description": "The most famous kushikatsu chain in Osaka, known for its 'angry chef' mascot and 'no double dipping' rule.",
    "estimated_duration": "1 hour",
    "rating": 4.1,
    "review_count": 4500,
    "min_budget": "¥2000"
  },
  {
    "name": "Yaekatsu",
    "region": "Kansai",
    "city": "Osaka",
    "prefecture": "Osaka-fu",
    "neighborhood": "Shinsekai",
    "category": "food",
    "coordinates": {
      "lat": 34.6515,
      "lng": 135.5058
    },
    "short_description": "Extremely popular kushikatsu spot in the Janjan Yokocho arcade, famous for its light, fluffy batter.",
    "estimated_duration": "1 hour",
    "rating": 4.3,
    "review_count": 3200,
    "min_budget": "¥2500"
  },
  {
    "name": "Tengu",
    "region": "Kansai",
    "city": "Osaka",
    "prefecture": "Osaka-fu",
    "neighborhood": "Shinsekai",
    "category": "food",
    "coordinates": {
      "lat": 34.6514,
      "lng": 135.5057
    },
    "short_description": "Neighbor to Yaekatsu, favored by locals for its doteyaki (miso-simmered beef sinew) and crispy skewers.",
    "estimated_duration": "1 hour",
    "rating": 4.2,
    "review_count": 1600,
    "min_budget": "¥2000"
  },
  {
    "name": "Kushikatsu Shichifukujin",
    "region": "Kansai",
    "city": "Osaka",
    "prefecture": "Osaka-fu",
    "neighborhood": "Tenma",
    "category": "food",
    "coordinates": {
      "lat": 34.7075,
      "lng": 135.5115
    },
    "short_description": "Friendly, counter-only spot in the Tenma drinking district offering affordable and delicious kushikatsu.",
    "estimated_duration": "1 hour",
    "rating": 4.3,
    "review_count": 900,
    "min_budget": "¥1500"
  },
  {
    "name": "Kinryu Ramen",
    "region": "Kansai",
    "city": "Osaka",
    "prefecture": "Osaka-fu",
    "neighborhood": "Dotonbori",
    "category": "food",
    "coordinates": {
      "lat": 34.6686,
      "lng": 135.5038
    },
    "short_description": "Iconic 24-hour ramen stand with a giant dragon sign, serving mild tonkotsu broth with unlimited kimchi.",
    "estimated_duration": "30 mins",
    "rating": 3.9,
    "review_count": 3500,
    "min_budget": "¥800"
  },
  {
    "name": "Kamukura Ramen Dotonbori",
    "region": "Kansai",
    "city": "Osaka",
    "prefecture": "Osaka-fu",
    "neighborhood": "Dotonbori",
    "category": "food",
    "coordinates": {
      "lat": 34.6685,
      "lng": 135.5028
    },
    "short_description": "Famous for its 'Oishii Ramen' featuring a sweet, vegetable-heavy broth that differs from typical tonkotsu.",
    "estimated_duration": "45 mins",
    "rating": 4.1,
    "review_count": 2800,
    "min_budget": "¥1000"
  },
  {
    "name": "Jinrui Minna Menrui",
    "region": "Kansai",
    "city": "Osaka",
    "prefecture": "Osaka-fu",
    "neighborhood": "Nishinakajima",
    "category": "food",
    "coordinates": {
      "lat": 34.7255,
      "lng": 135.4992
    },
    "short_description": "Legendary ramen shop with long queues, famous for its thick soy sauce broth and massive chashu pork blocks.",
    "estimated_duration": "1.5 hours",
    "rating": 4.4,
    "review_count": 3500,
    "min_budget": "¥1200"
  },
  {
    "name": "Moeyo Mensuke",
    "region": "Kansai",
    "city": "Osaka",
    "prefecture": "Osaka-fu",
    "neighborhood": "Fukushima",
    "category": "food",
    "coordinates": {
      "lat": 34.6963,
      "lng": 135.4868
    },
    "short_description": "Stylish ramen bar specializing in duck (kamo) broth and shellfish ramen with elegant toppings.",
    "estimated_duration": "1 hour",
    "rating": 4.4,
    "review_count": 2000,
    "min_budget": "¥1200"
  },
  {
    "name": "Ramen Yashichi",
    "region": "Kansai",
    "city": "Osaka",
    "prefecture": "Osaka-fu",
    "neighborhood": "Nakatsu",
    "category": "food",
    "coordinates": {
      "lat": 34.7102,
      "lng": 135.4965
    },
    "short_description": "Top-tier creamy chicken soy sauce ramen shop; ticket system usually requires arriving early.",
    "estimated_duration": "1 hour",
    "rating": 4.3,
    "review_count": 1200,
    "min_budget": "¥1000"
  },
  {
    "name": "Hanamaruken Ramen",
    "region": "Kansai",
    "city": "Osaka",
    "prefecture": "Osaka-fu",
    "neighborhood": "Namba",
    "category": "food",
    "coordinates": {
      "lat": 34.6678,
      "lng": 135.503
    },
    "short_description": "Famous for its 'Happiness Ramen' featuring a slow-cooked pork rib cartilage that melts in your mouth.",
    "estimated_duration": "45 mins",
    "rating": 4.2,
    "review_count": 2100,
    "min_budget": "¥1000"
  },
  {
    "name": "Zundo-ya Shinsaibashi",
    "region": "Kansai",
    "city": "Osaka",
    "prefecture": "Osaka-fu",
    "neighborhood": "Shinsaibashi",
    "category": "food",
    "coordinates": {
      "lat": 34.6735,
      "lng": 135.501
    },
    "short_description": "Popular Himeji-style tonkotsu ramen chain, open 24 hours and perfect for a late-night meal.",
    "estimated_duration": "45 mins",
    "rating": 4.1,
    "review_count": 1500,
    "min_budget": "¥1000"
  },
  {
    "name": "Endo Sushi Central Market",
    "region": "Kansai",
    "city": "Osaka",
    "prefecture": "Osaka-fu",
    "neighborhood": "Noda",
    "category": "food",
    "coordinates": {
      "lat": 34.6842,
      "lng": 135.4795
    },
    "short_description": "Historic sushi shop located inside the wholesale market, famous for its warm rice 'tsukami-zushi'.",
    "estimated_duration": "1 hour",
    "rating": 4.4,
    "review_count": 2500,
    "min_budget": "¥3000"
  },
  {
    "name": "Harukoma Sushi",
    "region": "Kansai",
    "city": "Osaka",
    "prefecture": "Osaka-fu",
    "neighborhood": "Tenma",
    "category": "food",
    "coordinates": {
      "lat": 34.7077,
      "lng": 135.5116
    },
    "short_description": "Bustling sushi joint in the Tenjinbashisuji arcade offering generous cuts of fresh fish at budget prices.",
    "estimated_duration": "1 hour",
    "rating": 4.2,
    "review_count": 2200,
    "min_budget": "¥2500"
  },
  {
    "name": "Genrokuzushi Dotonbori",
    "region": "Kansai",
    "city": "Osaka",
    "prefecture": "Osaka-fu",
    "neighborhood": "Dotonbori",
    "category": "food",
    "coordinates": {
      "lat": 34.6683,
      "lng": 135.5035
    },
    "short_description": "The birthplace of kaiten (conveyor belt) sushi, marked by a giant hand holding sushi on the sign.",
    "estimated_duration": "45 mins",
    "rating": 4.0,
    "review_count": 2000,
    "min_budget": "¥1500"
  },
  {
    "name": "Daiki Suisan Dotonbori",
    "region": "Kansai",
    "city": "Osaka",
    "prefecture": "Osaka-fu",
    "neighborhood": "Dotonbori",
    "category": "food",
    "coordinates": {
      "lat": 34.6685,
      "lng": 135.502
    },
    "short_description": "Large conveyor belt sushi restaurant popular for its wide variety of fresh seafood direct from the port.",
    "estimated_duration": "1 hour",
    "rating": 4.1,
    "review_count": 2400,
    "min_budget": "¥2000"
  },
  {
    "name": "Kamenozushi Main Store",
    "region": "Kansai",
    "city": "Osaka",
    "prefecture": "Osaka-fu",
    "neighborhood": "Tenma",
    "category": "food",
    "coordinates": {
      "lat": 34.7005,
      "lng": 135.5008
    },
    "short_description": "Classic, multi-story sushi restaurant near Umeda offering high-quality nigiri in a lively, traditional setting.",
    "estimated_duration": "1 hour",
    "rating": 4.3,
    "review_count": 1800,
    "min_budget": "¥4000"
  },
  {
    "name": "Usamitei Matsubaya",
    "region": "Kansai",
    "city": "Osaka",
    "prefecture": "Osaka-fu",
    "neighborhood": "Minamisenba",
    "category": "food",
    "coordinates": {
      "lat": 34.6779,
      "lng": 135.5023
    },
    "short_description": "The inventor of Kitsune Udon (udon with sweet fried tofu), serving the original comforting bowl since 1893.",
    "estimated_duration": "45 mins",
    "rating": 4.2,
    "review_count": 950,
    "min_budget": "¥1000"
  },
  {
    "name": "Tsurutontan Soemoncho",
    "region": "Kansai",
    "city": "Osaka",
    "prefecture": "Osaka-fu",
    "neighborhood": "Dotonbori",
    "category": "food",
    "coordinates": {
      "lat": 34.6688,
      "lng": 135.5055
    },
    "short_description": "Famous for massive bowls of udon noodles with creative broths ranging from cream sauce to spicy roe.",
    "estimated_duration": "1 hour",
    "rating": 4.3,
    "review_count": 2300,
    "min_budget": "¥1800"
  },
  {
    "name": "Dotonbori Imai",
    "region": "Kansai",
    "city": "Osaka",
    "prefecture": "Osaka-fu",
    "neighborhood": "Dotonbori",
    "category": "food",
    "coordinates": {
      "lat": 34.6683,
      "lng": 135.5025
    },
    "short_description": "A tranquil traditional oasis amidst the neon, renowned for its refined dashi broth and kitsune udon.",
    "estimated_duration": "1 hour",
    "rating": 4.2,
    "review_count": 1100,
    "min_budget": "¥1500"
  },
  {
    "name": "Matsusakagyu Yakiniku M Hozenji Yokocho",
    "region": "Kansai",
    "city": "Osaka",
    "prefecture": "Osaka-fu",
    "neighborhood": "Namba",
    "category": "food",
    "coordinates": {
      "lat": 34.6675,
      "lng": 135.5028
    },
    "short_description": "Upscale yakiniku spot located in a historic alley, specializing in premium Matsusaka beef.",
    "estimated_duration": "2 hours",
    "rating": 4.5,
    "review_count": 3500,
    "min_budget": "¥8000"
  },
  {
    "name": "Yakiniku Sora Tsuruhashi",
    "region": "Kansai",
    "city": "Osaka",
    "prefecture": "Osaka-fu",
    "neighborhood": "Tsuruhashi",
    "category": "food",
    "coordinates": {
      "lat": 34.6656,
      "lng": 135.5293
    },
    "short_description": "Authentic, smoky Korean BBQ joint in Osaka's Korea Town, famous for its horumon (offal) and lively vibe.",
    "estimated_duration": "1.5 hours",
    "rating": 4.0,
    "review_count": 1500,
    "min_budget": "¥4000"
  },
  {
    "name": "Kitamura",
    "region": "Kansai",
    "city": "Osaka",
    "prefecture": "Osaka-fu",
    "neighborhood": "Shinsaibashi",
    "category": "food",
    "coordinates": {
      "lat": 34.672,
      "lng": 135.502
    },
    "short_description": "Michelin-starred Kansai-style sukiyaki establishment dating back to 1881, offering a luxurious beef experience.",
    "estimated_duration": "2 hours",
    "rating": 4.4,
    "review_count": 600,
    "min_budget": "¥12000"
  },
  {
    "name": "Hariju Dotonbori",
    "region": "Kansai",
    "city": "Osaka",
    "prefecture": "Osaka-fu",
    "neighborhood": "Dotonbori",
    "category": "food",
    "coordinates": {
      "lat": 34.6685,
      "lng": 135.501
    },
    "short_description": "Historic beef specialist serving sukiyaki and shabu-shabu in a traditional Japanese building since 1919.",
    "estimated_duration": "1.5-2 hours",
    "rating": 4.3,
    "review_count": 1200,
    "min_budget": "¥10000"
  },
  {
    "name": "Hokkyokusei Shinsaibashi",
    "region": "Kansai",
    "city": "Osaka",
    "prefecture": "Osaka-fu",
    "neighborhood": "Shinsaibashi",
    "category": "food",
    "coordinates": {
      "lat": 34.6696,
      "lng": 135.4987
    },
    "short_description": "The birthplace of Omurice (omelet rice), serving the classic dish in a beautiful traditional courtyard setting.",
    "estimated_duration": "1 hour",
    "rating": 4.2,
    "review_count": 2800,
    "min_budget": "¥1500"
  },
  {
    "name": "Jiyuken Namba",
    "region": "Kansai",
    "city": "Osaka",
    "prefecture": "Osaka-fu",
    "neighborhood": "Namba",
    "category": "food",
    "coordinates": {
      "lat": 34.6663,
      "lng": 135.5024
    },
    "short_description": "Founded in 1910, famous for its unique 'Meibutsu Curry' where rice and curry are mixed together with a raw egg on top.",
    "estimated_duration": "45 mins",
    "rating": 4.0,
    "review_count": 2500,
    "min_budget": "¥1000"
  },
  {
    "name": "551 Horai Honten",
    "region": "Kansai",
    "city": "Osaka",
    "prefecture": "Osaka-fu",
    "neighborhood": "Namba",
    "category": "food",
    "coordinates": {
      "lat": 34.666,
      "lng": 135.5018
    },
    "short_description": "Osaka's soul food; a Chinese restaurant famous for its 'butaman' (steamed pork buns) which are a must-buy souvenir.",
    "estimated_duration": "45 mins",
    "rating": 4.3,
    "review_count": 4000,
    "min_budget": "¥1000"
  },
  {
    "name": "Rikuro Ojisan Namba",
    "region": "Kansai",
    "city": "Osaka",
    "prefecture": "Osaka-fu",
    "neighborhood": "Namba",
    "category": "food",
    "coordinates": {
      "lat": 34.6662,
      "lng": 135.5015
    },
    "short_description": "Famous bakery known for its jiggly, freshly baked cheesecakes that are rung in with a bell.",
    "estimated_duration": "20 mins",
    "rating": 4.4,
    "review_count": 5500,
    "min_budget": "¥900"
  },
  {
    "name": "Kani Douraku Dotonbori",
    "region": "Kansai",
    "city": "Osaka",
    "prefecture": "Osaka-fu",
    "neighborhood": "Dotonbori",
    "category": "food",
    "coordinates": {
      "lat": 34.6687,
      "lng": 135.504
    },
    "short_description": "Landmark crab restaurant famous for its moving mechanical crab sign and multi-course crab kaiseki feasts.",
    "estimated_duration": "2 hours",
    "rating": 4.1,
    "review_count": 4000,
    "min_budget": "¥6000"
  },
  {
    "name": "Kuromon Ichiba Market",
    "region": "Kansai",
    "city": "Osaka",
    "prefecture": "Osaka-fu",
    "neighborhood": "Nipponbashi",
    "category": "food",
    "coordinates": {
      "lat": 34.6655,
      "lng": 135.5075
    },
    "short_description": "Known as 'Osaka's Kitchen', this market is packed with stalls selling fresh seafood, grilled skewers, and fruits.",
    "estimated_duration": "1-2 hours",
    "rating": 4.0,
    "review_count": 12000,
    "min_budget": "¥2000"
  },
  {
    "name": "Maguroya Kurogin",
    "region": "Kansai",
    "city": "Osaka",
    "prefecture": "Osaka-fu",
    "neighborhood": "Nipponbashi",
    "category": "food",
    "coordinates": {
      "lat": 34.6652,
      "lng": 135.507
    },
    "short_description": "Highly rated tuna specialist in Kuromon Market offering melt-in-your-mouth otoro bowls and sashimi.",
    "estimated_duration": "45 mins",
    "rating": 4.5,
    "review_count": 800,
    "min_budget": "¥3000"
  },
  {
    "name": "Wad Omotenashi Cafe",
    "region": "Kansai",
    "city": "Osaka",
    "prefecture": "Osaka-fu",
    "neighborhood": "Minamisenba",
    "category": "food",
    "coordinates": {
      "lat": 34.6775,
      "lng": 135.5005
    },
    "short_description": "Serene Japanese cafe offering traditional tea ceremonies, matcha, and artisanal shaved ice (kakigori).",
    "estimated_duration": "1 hour",
    "rating": 4.5,
    "review_count": 600,
    "min_budget": "¥1500"
  },
  {
    "name": "Lilo Coffee Roasters",
    "region": "Kansai",
    "city": "Osaka",
    "prefecture": "Osaka-fu",
    "neighborhood": "Amerikamura",
    "category": "food",
    "coordinates": {
      "lat": 34.672,
      "lng": 135.498
    },
    "short_description": "Micro-roastery offering a vast selection of single-origin beans and varied brewing methods in a hip space.",
    "estimated_duration": "45 mins",
    "rating": 4.7,
    "review_count": 1200,
    "min_budget": "¥600"
  },
  {
    "name": "Fujiya 1935",
    "region": "Kansai",
    "city": "Osaka",
    "prefecture": "Osaka-fu",
    "neighborhood": "Chuo Ward",
    "category": "food",
    "coordinates": {
      "lat": 34.686,
      "lng": 135.511
    },
    "short_description": "Three-Michelin-starred restaurant serving innovative Spanish-influenced cuisine using Japanese seasonal ingredients.",
    "estimated_duration": "3 hours",
    "rating": 4.5,
    "review_count": 500,
    "min_budget": "¥25000"
  },
  {
    "name": "Hajime",
    "region": "Kansai",
    "city": "Osaka",
    "prefecture": "Osaka-fu",
    "neighborhood": "Higobashi",
    "category": "food",
    "coordinates": {
      "lat": 34.6915,
      "lng": 135.4975
    },
    "short_description": "World-renowned 3-Michelin-star restaurant offering a conceptual and artistic French-Japanese tasting menu.",
    "estimated_duration": "3-4 hours",
    "rating": 4.6,
    "review_count": 400,
    "min_budget": "¥40000"
  },
  {
    "name": "Osaka Ohsho Dotonbori",
    "region": "Kansai",
    "city": "Osaka",
    "prefecture": "Osaka-fu",
    "neighborhood": "Dotonbori",
    "category": "food",
    "coordinates": {
      "lat": 34.6686,
      "lng": 135.5032
    },
    "short_description": "The headquarters of the famous gyoza chain, known for its giant signboard and reliable dumplings.",
    "estimated_duration": "45 mins",
    "rating": 3.8,
    "review_count": 1200,
    "min_budget": "¥1000"
  },
  {
    "name": "Izakaya Toyo",
    "region": "Kansai",
    "city": "Osaka",
    "prefecture": "Osaka-fu",
    "neighborhood": "Kyobashi",
    "category": "food",
    "coordinates": {
      "lat": 34.6972,
      "lng": 135.5351
    },
    "short_description": "Famous standing izakaya featured on Netflix, where the charismatic chef cooks tuna with a blowtorch by hand.",
    "estimated_duration": "1-1.5 hours",
    "rating": 4.4,
    "review_count": 1800,
    "min_budget": "¥3000"
  }
]
