[
  {
    "name": "Soup Curry Garaku",
    "region": "Hokkaido",
    "city": "Sapporo",
    "prefecture": "Hokkaido",
    "neighborhood": "Odori",
    "category": "food",
    "coordinates": {
      "lat": 43.0586,
      "lng": 141.3556
    },
    "short_description": "Extremely popular soup curry shop known for its rich bonito-stock broth and tender chicken legs.",
    "estimated_duration": "1-1.5 hours",
    "rating": 4.4,
    "review_count": 3000,
    "min_budget": "¥1500"
  },
  {
    "name": "Menya Saimi",
    "region": "Hokkaido",
    "city": "Sapporo",
    "prefecture": "Hokkaido",
    "neighborhood": "Toyohira",
    "category": "food",
    "coordinates": {
      "lat": 43.0385,
      "lng": 141.3934
    },
    "short_description": "Widely considered the best miso ramen in Sapporo, featuring a ginger-infused rich soup.",
    "estimated_duration": "1 hour",
    "rating": 4.5,
    "review_count": 2800,
    "min_budget": "¥1000"
  },
  {
    "name": "Nemuro Hanamaru JR Tower",
    "region": "Hokkaido",
    "city": "Sapporo",
    "prefecture": "Hokkaido",
    "neighborhood": "Sapporo Station",
    "category": "food",
    "coordinates": {
      "lat": 43.0686,
      "lng": 141.3508
    },
    "short_description": "Famous conveyor belt sushi offering high-quality Hokkaido seafood at affordable prices.",
    "estimated_duration": "1-2 hours",
    "rating": 4.6,
    "review_count": 4500,
    "min_budget": "¥2000"
  },
  {
    "name": "Jingisukan Daruma 4.4",
    "region": "Hokkaido",
    "city": "Sapporo",
    "prefecture": "Hokkaido",
    "neighborhood": "Susukino",
    "category": "food",
    "coordinates": {
      "lat": 43.0541,
      "lng": 141.3533
    },
    "short_description": "Legendary spot for Genghis Khan (grilled mutton), loved by locals for its punchy dipping sauce.",
    "estimated_duration": "1-1.5 hours",
    "rating": 4.2,
    "review_count": 2100,
    "min_budget": "¥3000"
  },
  {
    "name": "Sapporo Beer Garden",
    "region": "Hokkaido",
    "city": "Sapporo",
    "prefecture": "Hokkaido",
    "neighborhood": "Higashi-ku",
    "category": "food",
    "coordinates": {
      "lat": 43.0713,
      "lng": 141.3693
    },
    "short_description": "Iconic red-brick beer hall offering all-you-can-eat Genghis Khan and fresh factory beer.",
    "estimated_duration": "2 hours",
    "rating": 4.3,
    "review_count": 5500,
    "min_budget": "¥4000"
  },
  {
    "name": "Suage+",
    "region": "Hokkaido",
    "city": "Sapporo",
    "prefecture": "Hokkaido",
    "neighborhood": "Susukino",
    "category": "food",
    "coordinates": {
      "lat": 43.0552,
      "lng": 141.3518
    },
    "short_description": "Innovative soup curry where ingredients are skewered and fried ('suage') for texture.",
    "estimated_duration": "1 hour",
    "rating": 4.4,
    "review_count": 2500,
    "min_budget": "¥1500"
  },
  {
    "name": "Ebisoba Ichigen",
    "region": "Hokkaido",
    "city": "Sapporo",
    "prefecture": "Hokkaido",
    "neighborhood": "Susukino",
    "category": "food",
    "coordinates": {
      "lat": 43.0515,
      "lng": 141.3475
    },
    "short_description": "Unique ramen featuring an intensely rich shrimp-based broth that draws long queues.",
    "estimated_duration": "1 hour",
    "rating": 4.3,
    "review_count": 3200,
    "min_budget": "¥1000"
  },
  {
    "name": "Nijo Market Ohiso",
    "region": "Hokkaido",
    "city": "Sapporo",
    "prefecture": "Hokkaido",
    "neighborhood": "Odori",
    "category": "food",
    "coordinates": {
      "lat": 43.0578,
      "lng": 141.3589
    },
    "short_description": "Popular market eatery serving fresh Kaisendon (seafood rice bowls) with sea urchin and crab.",
    "estimated_duration": "1 hour",
    "rating": 4.2,
    "review_count": 1200,
    "min_budget": "¥3000"
  },
  {
    "name": "Kaitenzushi Toriton",
    "region": "Hokkaido",
    "city": "Sapporo",
    "prefecture": "Hokkaido",
    "neighborhood": "Toyohira",
    "category": "food",
    "coordinates": {
      "lat": 43.0387,
      "lng": 141.3855
    },
    "short_description": "High-quality kaiten sushi favored by locals for its generous toppings and freshness.",
    "estimated_duration": "1-1.5 hours",
    "rating": 4.5,
    "review_count": 1800,
    "min_budget": "¥2500"
  },
  {
    "name": "Sumire Sapporo Honten",
    "region": "Hokkaido",
    "city": "Sapporo",
    "prefecture": "Hokkaido",
    "neighborhood": "Toyohira",
    "category": "food",
    "coordinates": {
      "lat": 43.0267,
      "lng": 141.3662
    },
    "short_description": "Historic ramen shop famous for its rich, oily miso soup that stays piping hot.",
    "estimated_duration": "1 hour",
    "rating": 4.2,
    "review_count": 2100,
    "min_budget": "¥1000"
  },
  {
    "name": "Umi Hachikyo",
    "region": "Hokkaido",
    "city": "Sapporo",
    "prefecture": "Hokkaido",
    "neighborhood": "Susukino",
    "category": "food",
    "coordinates": {
      "lat": 43.0558,
      "lng": 141.3531
    },
    "short_description": "Famous lively izakaya known for the 'tsukko meshi', a bowl of rice overflowing with salmon roe.",
    "estimated_duration": "2 hours",
    "rating": 4.4,
    "review_count": 1500,
    "min_budget": "¥6000"
  },
  {
    "name": "Picante",
    "region": "Hokkaido",
    "city": "Sapporo",
    "prefecture": "Hokkaido",
    "neighborhood": "Kita-ku",
    "category": "food",
    "coordinates": {
      "lat": 43.0768,
      "lng": 141.3495
    },
    "short_description": "A pioneer of soup curry offering medicinal herbal broths and crispy vegetables.",
    "estimated_duration": "1 hour",
    "rating": 4.3,
    "review_count": 1300,
    "min_budget": "¥1500"
  },
  {
    "name": "Keyaki Susukino",
    "region": "Hokkaido",
    "city": "Sapporo",
    "prefecture": "Hokkaido",
    "neighborhood": "Susukino",
    "category": "food",
    "coordinates": {
      "lat": 43.0543,
      "lng": 141.3536
    },
    "short_description": "Counter-only shop famous for miso ramen with a complex blend of vegetables and pork.",
    "estimated_duration": "45 mins",
    "rating": 4.0,
    "review_count": 1800,
    "min_budget": "¥1000"
  },
  {
    "name": "Parfaiteria PaL",
    "region": "Hokkaido",
    "city": "Sapporo",
    "prefecture": "Hokkaido",
    "neighborhood": "Susukino",
    "category": "food",
    "coordinates": {
      "lat": 43.0556,
      "lng": 141.3539
    },
    "short_description": "Specializes in 'shime-parfait' (night parfait), a beautifully crafted dessert eaten after drinking.",
    "estimated_duration": "1 hour",
    "rating": 4.3,
    "review_count": 900,
    "min_budget": "¥2000"
  },
  {
    "name": "Rokkatei Sapporo Honten",
    "region": "Hokkaido",
    "city": "Sapporo",
    "prefecture": "Hokkaido",
    "neighborhood": "Sapporo Station",
    "category": "food",
    "coordinates": {
      "lat": 43.0658,
      "lng": 141.3506
    },
    "short_description": "Flagship store of the famous confectioner, offering the Marusei Butter Sandwich and a cafe.",
    "estimated_duration": "1 hour",
    "rating": 4.5,
    "review_count": 2200,
    "min_budget": "¥1000"
  },
  {
    "name": "Aji no Sanpei",
    "region": "Hokkaido",
    "city": "Sapporo",
    "prefecture": "Hokkaido",
    "neighborhood": "Odori",
    "category": "food",
    "coordinates": {
      "lat": 43.0583,
      "lng": 141.3524
    },
    "short_description": "The birthplace of miso ramen, located in a stationery building, maintaining its original taste.",
    "estimated_duration": "45 mins",
    "rating": 4.1,
    "review_count": 1100,
    "min_budget": "¥1000"
  },
  {
    "name": "Sushi Miyakawa",
    "region": "Hokkaido",
    "city": "Sapporo",
    "prefecture": "Hokkaido",
    "neighborhood": "Maruyama",
    "category": "food",
    "coordinates": {
      "lat": 43.0554,
      "lng": 141.3262
    },
    "short_description": "Three-Michelin-starred sushi restaurant offering an exquisite, high-end omakase experience.",
    "estimated_duration": "2-3 hours",
    "rating": 4.8,
    "review_count": 200,
    "min_budget": "¥30000"
  },
  {
    "name": "Okushiba Shoten Ekimae",
    "region": "Hokkaido",
    "city": "Sapporo",
    "prefecture": "Hokkaido",
    "neighborhood": "Sapporo Station",
    "category": "food",
    "coordinates": {
      "lat": 43.0674,
      "lng": 141.3503
    },
    "short_description": "Famous for its rich shrimp-stock soup curry, a distinct variation from the standard chicken broth.",
    "estimated_duration": "1 hour",
    "rating": 4.3,
    "review_count": 1400,
    "min_budget": "¥1500"
  },
  {
    "name": "Kinotoya Bake",
    "region": "Hokkaido",
    "city": "Sapporo",
    "prefecture": "Hokkaido",
    "neighborhood": "Sapporo Station",
    "category": "food",
    "coordinates": {
      "lat": 43.0681,
      "lng": 141.351
    },
    "short_description": "Popular stand known for freshly baked cheese tarts with a gooey center.",
    "estimated_duration": "20 mins",
    "rating": 4.4,
    "review_count": 900,
    "min_budget": "¥500"
  },
  {
    "name": "Ramen Sapporo Ichiryuan",
    "region": "Hokkaido",
    "city": "Sapporo",
    "prefecture": "Hokkaido",
    "neighborhood": "Sapporo Station",
    "category": "food",
    "coordinates": {
      "lat": 43.0652,
      "lng": 141.3517
    },
    "short_description": "Known for using local Hokkaido wheat for noodles and garlic-scrambled egg miso ramen.",
    "estimated_duration": "1 hour",
    "rating": 4.2,
    "review_count": 1100,
    "min_budget": "¥1200"
  },
  {
    "name": "Kitanogurume",
    "region": "Hokkaido",
    "city": "Sapporo",
    "prefecture": "Hokkaido",
    "neighborhood": "Curb Market",
    "category": "food",
    "coordinates": {
      "lat": 43.0703,
      "lng": 141.3255
    },
    "short_description": "Large seafood market restaurant serving fresh kaisendon and grilled fish directly from the stalls.",
    "estimated_duration": "1 hour",
    "rating": 4.1,
    "review_count": 1800,
    "min_budget": "¥2500"
  },
  {
    "name": "Soup Curry Yellow",
    "region": "Hokkaido",
    "city": "Sapporo",
    "prefecture": "Hokkaido",
    "neighborhood": "Susukino",
    "category": "food",
    "coordinates": {
      "lat": 43.0562,
      "lng": 141.3567
    },
    "short_description": "Features a unique creamy yellow soup broth and lively, club-like atmosphere.",
    "estimated_duration": "1 hour",
    "rating": 4.2,
    "review_count": 1600,
    "min_budget": "¥1500"
  },
  {
    "name": "Menya Yukikaze",
    "region": "Hokkaido",
    "city": "Sapporo",
    "prefecture": "Hokkaido",
    "neighborhood": "Susukino",
    "category": "food",
    "coordinates": {
      "lat": 43.0526,
      "lng": 141.353
    },
    "short_description": "Late-night ramen spot famous for its rich, creamy miso broth, popular after drinking.",
    "estimated_duration": "1 hour",
    "rating": 4.3,
    "review_count": 1300,
    "min_budget": "¥1000"
  },
  {
    "name": "Matsuo Jingisukan",
    "region": "Hokkaido",
    "city": "Sapporo",
    "prefecture": "Hokkaido",
    "neighborhood": "Sapporo Station",
    "category": "food",
    "coordinates": {
      "lat": 43.0645,
      "lng": 141.3513
    },
    "short_description": "Offers pre-marinated lamb (Takikawa style), which is sweeter and softer than the dipping style.",
    "estimated_duration": "1.5 hours",
    "rating": 4.1,
    "review_count": 1000,
    "min_budget": "¥3500"
  },
  {
    "name": "Utari",
    "region": "Hokkaido",
    "city": "Sapporo",
    "prefecture": "Hokkaido",
    "neighborhood": "Susukino",
    "category": "food",
    "coordinates": {
      "lat": 43.056,
      "lng": 141.3528
    },
    "short_description": "Rare restaurant serving authentic Ainu cuisine like 'rataskep' and venison soup.",
    "estimated_duration": "1.5 hours",
    "rating": 4.5,
    "review_count": 200,
    "min_budget": "¥3000"
  },
  {
    "name": "Sushidokoro Towa",
    "region": "Hokkaido",
    "city": "Sapporo",
    "prefecture": "Hokkaido",
    "neighborhood": "Susukino",
    "category": "food",
    "coordinates": {
      "lat": 43.0538,
      "lng": 141.3541
    },
    "short_description": "Hidden gem sushi bar run by a master chef, offering high-value omakase courses.",
    "estimated_duration": "1.5-2 hours",
    "rating": 4.3,
    "review_count": 150,
    "min_budget": "¥8000"
  },
  {
    "name": "Asian Bar Ramai",
    "region": "Hokkaido",
    "city": "Sapporo",
    "prefecture": "Hokkaido",
    "neighborhood": "Susukino",
    "category": "food",
    "coordinates": {
      "lat": 43.0565,
      "lng": 141.3601
    },
    "short_description": "Balinese-themed soup curry shop known for generous portions and spicy options.",
    "estimated_duration": "1 hour",
    "rating": 4.4,
    "review_count": 2100,
    "min_budget": "¥1500"
  },
  {
    "name": "Snow Brand Parlor",
    "region": "Hokkaido",
    "city": "Sapporo",
    "prefecture": "Hokkaido",
    "neighborhood": "Sapporo Station",
    "category": "food",
    "coordinates": {
      "lat": 43.0642,
      "lng": 141.3522
    },
    "short_description": "Historic parlor famous for its 'Snow Royal' ice cream, originally made for the Emperor.",
    "estimated_duration": "1 hour",
    "rating": 3.9,
    "review_count": 1400,
    "min_budget": "¥1000"
  },
  {
    "name": "Aji no Karyu",
    "region": "Hokkaido",
    "city": "Sapporo",
    "prefecture": "Hokkaido",
    "neighborhood": "Susukino",
    "category": "food",
    "coordinates": {
      "lat": 43.0549,
      "lng": 141.3538
    },
    "short_description": "Located in Ramen Alley, this shop was visited by Anthony Bourdain and serves classic miso ramen.",
    "estimated_duration": "45 mins",
    "rating": 3.9,
    "review_count": 800,
    "min_budget": "¥1000"
  },
  {
    "name": "Teshikaga Ramen",
    "region": "Hokkaido",
    "city": "Sapporo",
    "prefecture": "Hokkaido",
    "neighborhood": "Susukino",
    "category": "food",
    "coordinates": {
      "lat": 43.0551,
      "lng": 141.3535
    },
    "short_description": "Ramen Yokocho shop offering varied broths including a rich seafood-pork bone blend.",
    "estimated_duration": "45 mins",
    "rating": 4.0,
    "review_count": 600,
    "min_budget": "¥1000"
  },
  {
    "name": "Yozora no Jingisukan",
    "region": "Hokkaido",
    "city": "Sapporo",
    "prefecture": "Hokkaido",
    "neighborhood": "Susukino",
    "category": "food",
    "coordinates": {
      "lat": 43.0545,
      "lng": 141.3529
    },
    "short_description": "Offers Genghis Khan with a view of the Susukino ferris wheel and high-quality local lamb.",
    "estimated_duration": "1.5 hours",
    "rating": 4.2,
    "review_count": 900,
    "min_budget": "¥4000"
  },
  {
    "name": "Moliere",
    "region": "Hokkaido",
    "city": "Sapporo",
    "prefecture": "Hokkaido",
    "neighborhood": "Maruyama",
    "category": "food",
    "coordinates": {
      "lat": 43.0568,
      "lng": 141.3185
    },
    "short_description": "World-class French cuisine using Hokkaido ingredients; holds 3 Michelin stars.",
    "estimated_duration": "2-3 hours",
    "rating": 4.7,
    "review_count": 500,
    "min_budget": "¥15000"
  },
  {
    "name": "Hanakoji Sawada",
    "region": "Hokkaido",
    "city": "Sapporo",
    "prefecture": "Hokkaido",
    "neighborhood": "Susukino",
    "category": "food",
    "coordinates": {
      "lat": 43.056,
      "lng": 141.354
    },
    "short_description": "Refined kaiseki dining known for its delicate tempura and seasonal Hokkaido dishes.",
    "estimated_duration": "2.5 hours",
    "rating": 4.6,
    "review_count": 100,
    "min_budget": "¥15000"
  },
  {
    "name": "Minato Machi no Monkichi",
    "region": "Hokkaido",
    "city": "Sapporo",
    "prefecture": "Hokkaido",
    "neighborhood": "Sapporo Station",
    "category": "food",
    "coordinates": {
      "lat": 43.0691,
      "lng": 141.3489
    },
    "short_description": "Local izakaya favorite offering a wide variety of Hokkaido seafood at reasonable prices.",
    "estimated_duration": "2 hours",
    "rating": 4.0,
    "review_count": 300,
    "min_budget": "¥3000"
  },
  {
    "name": "Curry SAVoY",
    "region": "Hokkaido",
    "city": "Sapporo",
    "prefecture": "Hokkaido",
    "neighborhood": "Sapporo Station",
    "category": "food",
    "coordinates": {
      "lat": 43.0665,
      "lng": 141.3508
    },
    "short_description": "Underground hidden gem known for its deep, flavorful soup curry and cozy jazz atmosphere.",
    "estimated_duration": "1 hour",
    "rating": 4.2,
    "review_count": 700,
    "min_budget": "¥1500"
  },
  {
    "name": "Ramen Toguchi",
    "region": "Hokkaido",
    "city": "Sapporo",
    "prefecture": "Hokkaido",
    "neighborhood": "Susukino",
    "category": "food",
    "coordinates": {
      "lat": 43.0548,
      "lng": 141.3537
    },
    "short_description": "Local favorite for its rich miso butter corn ramen and generous portions.",
    "estimated_duration": "45 mins",
    "rating": 4.1,
    "review_count": 500,
    "min_budget": "¥1000"
  },
  {
    "name": "Sushi Tanabe",
    "region": "Hokkaido",
    "city": "Sapporo",
    "prefecture": "Hokkaido",
    "neighborhood": "Susukino",
    "category": "food",
    "coordinates": {
      "lat": 43.0553,
      "lng": 141.3532
    },
    "short_description": "High-end sushi counter known for its impeccable service and seasonal Hokkaido toppings.",
    "estimated_duration": "2 hours",
    "rating": 4.5,
    "review_count": 300,
    "min_budget": "¥15000"
  },
  {
    "name": "Itadakimasu",
    "region": "Hokkaido",
    "city": "Sapporo",
    "prefecture": "Hokkaido",
    "neighborhood": "Susukino",
    "category": "food",
    "coordinates": {
      "lat": 43.0535,
      "lng": 141.352
    },
    "short_description": "Uniquely owns its own sheep farm, serving rare Hokkaido-raised mutton (most is imported).",
    "estimated_duration": "1.5 hours",
    "rating": 4.3,
    "review_count": 1000,
    "min_budget": "¥4000"
  },
  {
    "name": "Donburi Chaya",
    "region": "Hokkaido",
    "city": "Sapporo",
    "prefecture": "Hokkaido",
    "neighborhood": "Nijo Market",
    "category": "food",
    "coordinates": {
      "lat": 43.0577,
      "lng": 141.3591
    },
    "short_description": "Famous spot in Nijo Market for extravagant seafood rice bowls.",
    "estimated_duration": "1 hour",
    "rating": 4.0,
    "review_count": 1500,
    "min_budget": "¥2500"
  },
  {
    "name": "Ishiya Cafe",
    "region": "Hokkaido",
    "city": "Sapporo",
    "prefecture": "Hokkaido",
    "neighborhood": "Odori",
    "category": "food",
    "coordinates": {
      "lat": 43.061,
      "lng": 141.3505
    },
    "short_description": "Cafe by the makers of Shiroi Koibito cookies, offering thick pancakes and chocolate drinks.",
    "estimated_duration": "1 hour",
    "rating": 4.1,
    "review_count": 800,
    "min_budget": "¥1200"
  },
  {
    "name": "Ramen Sora",
    "region": "Hokkaido",
    "city": "Sapporo",
    "prefecture": "Hokkaido",
    "neighborhood": "Susukino",
    "category": "food",
    "coordinates": {
      "lat": 43.0561,
      "lng": 141.3563
    },
    "short_description": "Popular tiny shop serving distinctively flavorful miso ramen with tender chashu.",
    "estimated_duration": "45 mins",
    "rating": 4.2,
    "review_count": 1100,
    "min_budget": "¥1000"
  },
  {
    "name": "Sushidokoro Fushimi",
    "region": "Hokkaido",
    "city": "Sapporo",
    "prefecture": "Hokkaido",
    "neighborhood": "Susukino",
    "category": "food",
    "coordinates": {
      "lat": 43.0532,
      "lng": 141.3525
    },
    "short_description": "Hidden high-quality sushi spot offering omakase courses in a relaxed atmosphere.",
    "estimated_duration": "2 hours",
    "rating": 4.3,
    "review_count": 100,
    "min_budget": "¥10000"
  },
  {
    "name": "Soup Curry Samurai",
    "region": "Hokkaido",
    "city": "Sapporo",
    "prefecture": "Hokkaido",
    "neighborhood": "Susukino",
    "category": "food",
    "coordinates": {
      "lat": 43.0563,
      "lng": 141.3547
    },
    "short_description": "Known for a thick, vegetable-heavy broth that is almost stew-like in consistency.",
    "estimated_duration": "1 hour",
    "rating": 4.3,
    "review_count": 1900,
    "min_budget": "¥1600"
  },
  {
    "name": "Ganso Ramen Yokocho",
    "region": "Hokkaido",
    "city": "Sapporo",
    "prefecture": "Hokkaido",
    "neighborhood": "Susukino",
    "category": "food",
    "coordinates": {
      "lat": 43.0547,
      "lng": 141.3539
    },
    "short_description": "Historic narrow alleyway lined with 17 different miso ramen shops.",
    "estimated_duration": "1 hour",
    "rating": 4.0,
    "review_count": 3500,
    "min_budget": "¥1000"
  },
  {
    "name": "Robata Cusco",
    "region": "Hokkaido",
    "city": "Sapporo",
    "prefecture": "Hokkaido",
    "neighborhood": "Susukino",
    "category": "food",
    "coordinates": {
      "lat": 43.0542,
      "lng": 141.3545
    },
    "short_description": "Lively robatayaki (charcoal grill) izakaya popular for grilled fish and local sake.",
    "estimated_duration": "2 hours",
    "rating": 4.1,
    "review_count": 400,
    "min_budget": "¥4000"
  },
  {
    "name": "Baristart Coffee",
    "region": "Hokkaido",
    "city": "Sapporo",
    "prefecture": "Hokkaido",
    "neighborhood": "Odori",
    "category": "food",
    "coordinates": {
      "lat": 43.0594,
      "lng": 141.3502
    },
    "short_description": "Specialty coffee stand where you can choose milk from different Hokkaido dairy farms.",
    "estimated_duration": "30 mins",
    "rating": 4.6,
    "review_count": 1200,
    "min_budget": "¥800"
  },
  {
    "name": "Yoshiyama Shouten",
    "region": "Hokkaido",
    "city": "Sapporo",
    "prefecture": "Hokkaido",
    "neighborhood": "Higashi-ku",
    "category": "food",
    "coordinates": {
      "lat": 43.0833,
      "lng": 141.3858
    },
    "short_description": "Renowned for its 'roasted sesame miso ramen' which has a nutty, aromatic depth.",
    "estimated_duration": "45 mins",
    "rating": 4.3,
    "review_count": 900,
    "min_budget": "¥1000"
  },
  {
    "name": "Hana Maru (Standing Sushi)",
    "region": "Hokkaido",
    "city": "Sapporo",
    "prefecture": "Hokkaido",
    "neighborhood": "Sapporo Station",
    "category": "food",
    "coordinates": {
      "lat": 43.0682,
      "lng": 141.3514
    },
    "short_description": "Standing bar version of the famous chain, offering quick, high-quality pieces.",
    "estimated_duration": "45 mins",
    "rating": 4.4,
    "review_count": 600,
    "min_budget": "¥1500"
  },
  {
    "name": "Parfaiteria MiL",
    "region": "Hokkaido",
    "city": "Sapporo",
    "prefecture": "Hokkaido",
    "neighborhood": "Susukino",
    "category": "food",
    "coordinates": {
      "lat": 43.0564,
      "lng": 141.3533
    },
    "short_description": "Another top spot for the 'shime-parfait' culture, featuring artistic and seasonal creations.",
    "estimated_duration": "1 hour",
    "rating": 4.2,
    "review_count": 700,
    "min_budget": "¥2000"
  },
  {
    "name": "Elm Garden",
    "region": "Hokkaido",
    "city": "Sapporo",
    "prefecture": "Hokkaido",
    "neighborhood": "Moiwa",
    "category": "food",
    "coordinates": {
      "lat": 43.0366,
      "lng": 141.3341
    },
    "short_description": "Kaiseki restaurant set in a stunning Japanese garden, perfect for special occasions.",
    "estimated_duration": "2.5 hours",
    "rating": 4.5,
    "review_count": 300,
    "min_budget": "¥8000"
  },
  {
    "name": "Saryo Takiya",
    "region": "Hokkaido",
    "city": "Sapporo",
    "prefecture": "Hokkaido",
    "neighborhood": "Maruyama",
    "category": "food",
    "coordinates": {
      "lat": 43.0538,
      "lng": 141.3197
    },
    "short_description": "Relaxed Japanese sweets cafe renowned for its matcha parfaits and mochi.",
    "estimated_duration": "1 hour",
    "rating": 4.4,
    "review_count": 400,
    "min_budget": "¥1200"
  },
  {
    "name": "Ramen Sen no Kaze",
    "region": "Hokkaido",
    "city": "Sapporo",
    "prefecture": "Hokkaido",
    "neighborhood": "Susukino",
    "category": "food",
    "coordinates": {
      "lat": 43.0566,
      "lng": 141.3552
    },
    "short_description": "Warm atmosphere ramen shop famous for its creamy salt broth and gyoza.",
    "estimated_duration": "1 hour",
    "rating": 4.3,
    "review_count": 800,
    "min_budget": "¥1000"
  },
  {
    "name": "Sapporo Beer Garden Lilac",
    "region": "Hokkaido",
    "city": "Sapporo",
    "prefecture": "Hokkaido",
    "neighborhood": "Higashi-ku",
    "category": "food",
    "coordinates": {
      "lat": 43.0715,
      "lng": 141.3695
    },
    "short_description": "A la carte section of the Beer Garden offering marinated Jingisukan in a quieter setting.",
    "estimated_duration": "1.5 hours",
    "rating": 4.2,
    "review_count": 1200,
    "min_budget": "¥3000"
  },
  {
    "name": "Treasure",
    "region": "Hokkaido",
    "city": "Sapporo",
    "prefecture": "Hokkaido",
    "neighborhood": "Odori",
    "category": "food",
    "coordinates": {
      "lat": 43.0581,
      "lng": 141.355
    },
    "short_description": "Sister store to Garaku, offering soup curry with unique toppings like hamburg steak.",
    "estimated_duration": "1 hour",
    "rating": 4.3,
    "review_count": 900,
    "min_budget": "¥1500"
  },
  {
    "name": "Hirihiri 2 Go",
    "region": "Hokkaido",
    "city": "Sapporo",
    "prefecture": "Hokkaido",
    "neighborhood": "Sapporo Station",
    "category": "food",
    "coordinates": {
      "lat": 43.0678,
      "lng": 141.3479
    },
    "short_description": "Casual soup curry spot popular with locals for its spicy coconut soup base.",
    "estimated_duration": "1 hour",
    "rating": 4.1,
    "review_count": 600,
    "min_budget": "¥1200"
  },
  {
    "name": "175 DENO Tantanmen",
    "region": "Hokkaido",
    "city": "Sapporo",
    "prefecture": "Hokkaido",
    "neighborhood": "Odori",
    "category": "food",
    "coordinates": {
      "lat": 43.0588,
      "lng": 141.3515
    },
    "short_description": "Specialty shop for Tantanmen (spicy sesame noodles) using numbing Sichuan peppers.",
    "estimated_duration": "45 mins",
    "rating": 4.2,
    "review_count": 1000,
    "min_budget": "¥1000"
  },
  {
    "name": "Hokkaido Kani Shogun",
    "region": "Hokkaido",
    "city": "Sapporo",
    "prefecture": "Hokkaido",
    "neighborhood": "Susukino",
    "category": "food",
    "coordinates": {
      "lat": 43.0557,
      "lng": 141.3551
    },
    "short_description": "Large crab specialty restaurant recognizable by the giant crab sign, serving crab kaiseki.",
    "estimated_duration": "2 hours",
    "rating": 4.0,
    "review_count": 2000,
    "min_budget": "¥8000"
  },
  {
    "name": "Sandria",
    "region": "Hokkaido",
    "city": "Sapporo",
    "prefecture": "Hokkaido",
    "neighborhood": "Susukino",
    "category": "food",
    "coordinates": {
      "lat": 43.0505,
      "lng": 141.3482
    },
    "short_description": "24-hour sandwich shop famous for its egg sandwiches, a beloved local late-night snack.",
    "estimated_duration": "30 mins",
    "rating": 4.4,
    "review_count": 2500,
    "min_budget": "¥800"
  },
  {
    "name": "Tempura Araki",
    "region": "Hokkaido",
    "city": "Sapporo",
    "prefecture": "Hokkaido",
    "neighborhood": "Susukino",
    "category": "food",
    "coordinates": {
      "lat": 43.0559,
      "lng": 141.353
    },
    "short_description": "Two-Michelin-starred tempura restaurant offering an intimate counter dining experience.",
    "estimated_duration": "2.5 hours",
    "rating": 4.6,
    "review_count": 150,
    "min_budget": "¥20000"
  }
]
