[
  {
    "name": "Teuchi Judan Udon Baka Ichidai",
    "region": "Shikoku",
    "city": "Takamatsu",
    "prefecture": "Kagawa-ken",
    "neighborhood": "Kawaramachi",
    "category": "food",
    "coordinates": {
      "lat": 34.3364,
      "lng": 134.0538
    },
    "short_description": "Legendary self-service Sanuki udon shop famous for its 'Kama Butter Udon', reminiscent of carbonara.",
    "estimated_duration": "45 mins - 1 hour",
    "rating": 4.4,
    "review_count": 3500,
    "min_budget": "¥500"
  },
  {
    "name": "Ikkaku Takamatsu",
    "region": "Shikoku",
    "city": "Takamatsu",
    "prefecture": "Kagawa-ken",
    "neighborhood": "Kawaramachi",
    "category": "food",
    "coordinates": {
      "lat": 34.3453,
      "lng": 134.0519
    },
    "short_description": "The quintessential destination for Honetsuki-dori (spicy roasted bone-in chicken leg), a Takamatsu soul food.",
    "estimated_duration": "1-1.5 hours",
    "rating": 4.1,
    "review_count": 2100,
    "min_budget": "¥2000"
  },
  {
    "name": "Waraya",
    "region": "Shikoku",
    "city": "Takamatsu",
    "prefecture": "Kagawa-ken",
    "neighborhood": "Yashima",
    "category": "food",
    "coordinates": {
      "lat": 34.3582,
      "lng": 134.1039
    },
    "short_description": "Famous family-style udon restaurant set in a thatched-roof Edo-period farmhouse near Shikoku Mura.",
    "estimated_duration": "1 hour",
    "rating": 4.2,
    "review_count": 1800,
    "min_budget": "¥1000"
  },
  {
    "name": "Chikusei",
    "region": "Shikoku",
    "city": "Takamatsu",
    "prefecture": "Kagawa-ken",
    "neighborhood": "Ritsurin",
    "category": "food",
    "coordinates": {
      "lat": 34.3378,
      "lng": 134.0435
    },
    "short_description": "Top-tier self-service udon shop known for its perfectly fried tempura, specifically the half-boiled egg.",
    "estimated_duration": "30-45 mins",
    "rating": 4.3,
    "review_count": 1500,
    "min_budget": "¥500"
  },
  {
    "name": "Honetsukidori Yoridorimidori",
    "region": "Shikoku",
    "city": "Takamatsu",
    "prefecture": "Kagawa-ken",
    "neighborhood": "Hyogomachi",
    "category": "food",
    "coordinates": {
      "lat": 34.3468,
      "lng": 134.0489
    },
    "short_description": "Popular izakaya specializing in olive-fed chicken Honetsuki-dori with a wide selection of local sake.",
    "estimated_duration": "1.5 hours",
    "rating": 4.2,
    "review_count": 950,
    "min_budget": "¥2500"
  },
  {
    "name": "Machi no Shule 963",
    "region": "Shikoku",
    "city": "Takamatsu",
    "prefecture": "Kagawa-ken",
    "neighborhood": "Marugamemachi",
    "category": "food",
    "coordinates": {
      "lat": 34.3435,
      "lng": 134.0505
    },
    "short_description": "Stylish lifestyle shop and cafe serving healthy lunch plates with local Setouchi ingredients.",
    "estimated_duration": "1-1.5 hours",
    "rating": 4.1,
    "review_count": 400,
    "min_budget": "¥1500"
  },
  {
    "name": "Teuchi Udon Tsurumaru",
    "region": "Shikoku",
    "city": "Takamatsu",
    "prefecture": "Kagawa-ken",
    "neighborhood": "Furubabacho",
    "category": "food",
    "coordinates": {
      "lat": 34.3421,
      "lng": 134.0512
    },
    "short_description": "Late-night udon institution famous for its rich curry udon, popular with locals after drinking.",
    "estimated_duration": "45 mins",
    "rating": 4.1,
    "review_count": 1200,
    "min_budget": "¥1000"
  },
  {
    "name": "Sakaeda Udon",
    "region": "Shikoku",
    "city": "Takamatsu",
    "prefecture": "Kagawa-ken",
    "neighborhood": "Bancho",
    "category": "food",
    "coordinates": {
      "lat": 34.3392,
      "lng": 134.0456
    },
    "short_description": "Government worker favorite near the prefectural office, known for fast service and fresh morning noodles.",
    "estimated_duration": "30 mins",
    "rating": 4.2,
    "review_count": 1400,
    "min_budget": "¥400"
  },
  {
    "name": "Kaisen Umai Monoya Hamakaido",
    "region": "Shikoku",
    "city": "Takamatsu",
    "prefecture": "Kagawa-ken",
    "neighborhood": "Kajiyamachi",
    "category": "food",
    "coordinates": {
      "lat": 34.343,
      "lng": 134.05
    },
    "short_description": "Lively seafood izakaya offering fresh sashimi boats and grilled fish directly from local markets.",
    "estimated_duration": "2 hours",
    "rating": 4.0,
    "review_count": 600,
    "min_budget": "¥3500"
  },
  {
    "name": "Umie",
    "region": "Shikoku",
    "city": "Takamatsu",
    "prefecture": "Kagawa-ken",
    "neighborhood": "Kitahama Alley",
    "category": "food",
    "coordinates": {
      "lat": 34.3512,
      "lng": 134.0567
    },
    "short_description": "Trendy renovated warehouse cafe in Kitahama Alley with harbour views and excellent coffee.",
    "estimated_duration": "1-1.5 hours",
    "rating": 4.3,
    "review_count": 800,
    "min_budget": "¥1200"
  },
  {
    "name": "Matsushita Seimenjo",
    "region": "Shikoku",
    "city": "Takamatsu",
    "prefecture": "Kagawa-ken",
    "neighborhood": "Nakanocho",
    "category": "food",
    "coordinates": {
      "lat": 34.3345,
      "lng": 134.0438
    },
    "short_description": "Authentic self-service noodle factory experience where you warm your own noodles in hot water.",
    "estimated_duration": "30 mins",
    "rating": 4.1,
    "review_count": 1100,
    "min_budget": "¥400"
  },
  {
    "name": "Ranmaru",
    "region": "Shikoku",
    "city": "Takamatsu",
    "prefecture": "Kagawa-ken",
    "neighborhood": "Daikumachi",
    "category": "food",
    "coordinates": {
      "lat": 34.3442,
      "lng": 134.0525
    },
    "short_description": "Cozy izakaya famous for its bone-in chicken (Honetsuki-dori) with a crispy skin and juicy meat.",
    "estimated_duration": "1.5 hours",
    "rating": 4.0,
    "review_count": 750,
    "min_budget": "¥2500"
  },
  {
    "name": "Sanuki Rock",
    "region": "Shikoku",
    "city": "Takamatsu",
    "prefecture": "Kagawa-ken",
    "neighborhood": "Kawaramachi",
    "category": "food",
    "coordinates": {
      "lat": 34.3418,
      "lng": 134.051
    },
    "short_description": "Top-rated ramen shop serving refined soy sauce ramen with high-quality local ingredients.",
    "estimated_duration": "45 mins",
    "rating": 4.2,
    "review_count": 350,
    "min_budget": "¥900"
  },
  {
    "name": "Udon Ippuku",
    "region": "Shikoku",
    "city": "Takamatsu",
    "prefecture": "Kagawa-ken",
    "neighborhood": "Kokubunji",
    "category": "food",
    "coordinates": {
      "lat": 34.2985,
      "lng": 133.9572
    },
    "short_description": "Michelin Bib Gourmand udon shop known for its thinner, silkier noodles and excellent dashi.",
    "estimated_duration": "45 mins",
    "rating": 4.4,
    "review_count": 2200,
    "min_budget": "¥600"
  },
  {
    "name": "Tenkatsu",
    "region": "Shikoku",
    "city": "Takamatsu",
    "prefecture": "Kagawa-ken",
    "neighborhood": "Hyogomachi",
    "category": "food",
    "coordinates": {
      "lat": 34.3462,
      "lng": 134.0495
    },
    "short_description": "Historic restaurant featuring a massive fish tank, famous for tempura and fresh sashimi.",
    "estimated_duration": "1.5 hours",
    "rating": 3.9,
    "review_count": 500,
    "min_budget": "¥3000"
  },
  {
    "name": "Merikenya Takamatsu Station",
    "region": "Shikoku",
    "city": "Takamatsu",
    "prefecture": "Kagawa-ken",
    "neighborhood": "Nishinomarucho",
    "category": "food",
    "coordinates": {
      "lat": 34.3508,
      "lng": 134.0475
    },
    "short_description": "Extremely convenient and reliable Sanuki udon spot located right next to Takamatsu Station.",
    "estimated_duration": "30 mins",
    "rating": 3.8,
    "review_count": 1300,
    "min_budget": "¥500"
  },
  {
    "name": "Ramen Suzumushi",
    "region": "Shikoku",
    "city": "Takamatsu",
    "prefecture": "Kagawa-ken",
    "neighborhood": "Minamishinmachi",
    "category": "food",
    "coordinates": {
      "lat": 34.3395,
      "lng": 134.0488
    },
    "short_description": "Modern ramen shop serving a light yet flavorful dried sardine (iriko) broth ramen.",
    "estimated_duration": "45 mins",
    "rating": 4.1,
    "review_count": 300,
    "min_budget": "¥900"
  },
  {
    "name": "Honetsukidori Azuma",
    "region": "Shikoku",
    "city": "Takamatsu",
    "prefecture": "Kagawa-ken",
    "neighborhood": "Kajiyamachi",
    "category": "food",
    "coordinates": {
      "lat": 34.344,
      "lng": 134.0498
    },
    "short_description": "Local favorite for bone-in chicken with a slightly sweeter spice blend than its competitors.",
    "estimated_duration": "1 hour",
    "rating": 4.0,
    "review_count": 450,
    "min_budget": "¥2000"
  },
  {
    "name": "Shinpei Udon",
    "region": "Shikoku",
    "city": "Takamatsu",
    "prefecture": "Kagawa-ken",
    "neighborhood": "Tamachi",
    "category": "food",
    "coordinates": {
      "lat": 34.3382,
      "lng": 134.0485
    },
    "short_description": "Innovative udon shop famous for its Thai Green Curry Udon and tempura options.",
    "estimated_duration": "45 mins",
    "rating": 4.1,
    "review_count": 600,
    "min_budget": "¥800"
  },
  {
    "name": "Kitokuras Cafe",
    "region": "Shikoku",
    "city": "Marugame (Near Takamatsu)",
    "prefecture": "Kagawa-ken",
    "neighborhood": "Ayautacho",
    "category": "food",
    "coordinates": {
      "lat": 34.2543,
      "lng": 133.8291
    },
    "short_description": "Forest café run by a lumber company, offering coffee in a serene, wooded outdoor setting.",
    "estimated_duration": "1.5 hours",
    "rating": 4.4,
    "review_count": 550,
    "min_budget": "¥1000"
  },
  {
    "name": "Setouchi Ajidokoro Katsu",
    "region": "Shikoku",
    "city": "Takamatsu",
    "prefecture": "Kagawa-ken",
    "neighborhood": "Naruyacho",
    "category": "food",
    "coordinates": {
      "lat": 34.3485,
      "lng": 134.0532
    },
    "short_description": "Upscale izakaya featuring live fish tanks and expertly prepared local Seto Inland Sea seafood.",
    "estimated_duration": "2 hours",
    "rating": 4.1,
    "review_count": 200,
    "min_budget": "¥5000"
  },
  {
    "name": "Hamando",
    "region": "Shikoku",
    "city": "Mitoyo (Near Takamatsu)",
    "prefecture": "Kagawa-ken",
    "neighborhood": "Minocho",
    "category": "food",
    "coordinates": {
      "lat": 34.1982,
      "lng": 133.6845
    },
    "short_description": "The birthplace of 'Sanuki Ramen', featuring a soup base heavily influenced by udon dashi.",
    "estimated_duration": "1 hour",
    "rating": 4.2,
    "review_count": 1100,
    "min_budget": "¥900"
  },
  {
    "name": "Grill Plancha",
    "region": "Shikoku",
    "city": "Takamatsu",
    "prefecture": "Kagawa-ken",
    "neighborhood": "Marugamemachi",
    "category": "food",
    "coordinates": {
      "lat": 34.3458,
      "lng": 134.0502
    },
    "short_description": "Teppanyaki restaurant specializing in Olive Wagyu beef and local vegetables cooked on an iron griddle.",
    "estimated_duration": "1.5-2 hours",
    "rating": 4.4,
    "review_count": 150,
    "min_budget": "¥6000"
  },
  {
    "name": "Ueharaya Honten",
    "region": "Shikoku",
    "city": "Takamatsu",
    "prefecture": "Kagawa-ken",
    "neighborhood": "Ritsurin",
    "category": "food",
    "coordinates": {
      "lat": 34.3298,
      "lng": 134.0451
    },
    "short_description": "Located near Ritsurin Garden, offering a classic self-service udon experience with great tempura.",
    "estimated_duration": "45 mins",
    "rating": 4.1,
    "review_count": 2300,
    "min_budget": "¥600"
  },
  {
    "name": "Cafe Kuguri",
    "region": "Shikoku",
    "city": "Takamatsu",
    "prefecture": "Kagawa-ken",
    "neighborhood": "Tamachi",
    "category": "food",
    "coordinates": {
      "lat": 34.335,
      "lng": 134.048
    },
    "short_description": "Hidden gem cafe with a unique cave-like entrance and a cozy, modern interior serving sweets.",
    "estimated_duration": "1 hour",
    "rating": 4.2,
    "review_count": 120,
    "min_budget": "¥1000"
  },
  {
    "name": "Sake to Sakana",
    "region": "Shikoku",
    "city": "Takamatsu",
    "prefecture": "Kagawa-ken",
    "neighborhood": "Kawaramachi",
    "category": "food",
    "coordinates": {
      "lat": 34.3425,
      "lng": 134.052
    },
    "short_description": "Specialty sake bar with an extensive list of Kagawa brews and perfectly paired small plates.",
    "estimated_duration": "2 hours",
    "rating": 4.3,
    "review_count": 100,
    "min_budget": "¥4000"
  },
  {
    "name": "Tamoya Honten",
    "region": "Shikoku",
    "city": "Takamatsu",
    "prefecture": "Kagawa-ken",
    "neighborhood": "Minamishinmachi",
    "category": "food",
    "coordinates": {
      "lat": 34.3398,
      "lng": 134.0492
    },
    "short_description": "Energetic self-service udon shop known for its friendly staff and free toppings station.",
    "estimated_duration": "30 mins",
    "rating": 3.9,
    "review_count": 900,
    "min_budget": "¥500"
  },
  {
    "name": "Kiyowatei",
    "region": "Shikoku",
    "city": "Takamatsu",
    "prefecture": "Kagawa-ken",
    "neighborhood": "Kawaramachi",
    "category": "food",
    "coordinates": {
      "lat": 34.341,
      "lng": 134.0515
    },
    "short_description": "Local favorite for Tonkatsu (fried pork cutlet) with a retro showa-era atmosphere.",
    "estimated_duration": "1 hour",
    "rating": 4.0,
    "review_count": 300,
    "min_budget": "¥1500"
  },
  {
    "name": "Uoichiba Ogase",
    "region": "Shikoku",
    "city": "Takamatsu",
    "prefecture": "Kagawa-ken",
    "neighborhood": "Kitahama Alley",
    "category": "food",
    "coordinates": {
      "lat": 34.3505,
      "lng": 134.0558
    },
    "short_description": "Market-style dining hall offering fresh seafood bowls (kaisendon) in the hip Kitahama area.",
    "estimated_duration": "1 hour",
    "rating": 3.8,
    "review_count": 250,
    "min_budget": "¥1500"
  },
  {
    "name": "Keyaki Cafe",
    "region": "Shikoku",
    "city": "Takamatsu",
    "prefecture": "Kagawa-ken",
    "neighborhood": "Bancho",
    "category": "food",
    "coordinates": {
      "lat": 34.3415,
      "lng": 134.046
    },
    "short_description": "Relaxed cafe serving excellent morning sets and coffee, popular with locals for breakfast.",
    "estimated_duration": "45 mins",
    "rating": 4.1,
    "review_count": 150,
    "min_budget": "¥800"
  },
  {
    "name": "Yakiniku Nakagawa",
    "region": "Shikoku",
    "city": "Takamatsu",
    "prefecture": "Kagawa-ken",
    "neighborhood": "Kajiyamachi",
    "category": "food",
    "coordinates": {
      "lat": 34.3438,
      "lng": 134.049
    },
    "short_description": "High-quality Yakiniku restaurant offering Olive Wagyu beef at reasonable prices.",
    "estimated_duration": "2 hours",
    "rating": 4.2,
    "review_count": 200,
    "min_budget": "¥5000"
  },
  {
    "name": "Hidamari Kaki-Gori Stand",
    "region": "Shikoku",
    "city": "Takamatsu",
    "prefecture": "Kagawa-ken",
    "neighborhood": "Tourist Port",
    "category": "food",
    "coordinates": {
      "lat": 34.353,
      "lng": 134.045
    },
    "short_description": "Seasonal shaved ice stand using fresh local fruit syrups, located near the ferry terminal.",
    "estimated_duration": "30 mins",
    "rating": 4.3,
    "review_count": 180,
    "min_budget": "¥800"
  },
  {
    "name": "Robata Yaki Amiya",
    "region": "Shikoku",
    "city": "Takamatsu",
    "prefecture": "Kagawa-ken",
    "neighborhood": "Kawaramachi",
    "category": "food",
    "coordinates": {
      "lat": 34.3428,
      "lng": 134.0522
    },
    "short_description": "Traditional Robatayaki where chefs grill seafood and vegetables on paddles in front of you.",
    "estimated_duration": "2 hours",
    "rating": 4.0,
    "review_count": 400,
    "min_budget": "¥3500"
  },
  {
    "name": "Azuki Bakery",
    "region": "Shikoku",
    "city": "Takamatsu",
    "prefecture": "Kagawa-ken",
    "neighborhood": "Yashima",
    "category": "food",
    "coordinates": {
      "lat": 34.348,
      "lng": 134.101
    },
    "short_description": "Popular local bakery known for its hard crust breads and sweet red bean pastries.",
    "estimated_duration": "15 mins",
    "rating": 4.5,
    "review_count": 220,
    "min_budget": "¥600"
  },
  {
    "name": "Goument",
    "region": "Shikoku",
    "city": "Takamatsu",
    "prefecture": "Kagawa-ken",
    "neighborhood": "Hyogomachi",
    "category": "food",
    "coordinates": {
      "lat": 34.3465,
      "lng": 134.0485
    },
    "short_description": "Specializes in tsukemen (dipping style) udon with rich, flavorful dipping sauces.",
    "estimated_duration": "45 mins",
    "rating": 4.0,
    "review_count": 350,
    "min_budget": "¥800"
  },
  {
    "name": "Itamae Izakaya Kiraku",
    "region": "Shikoku",
    "city": "Takamatsu",
    "prefecture": "Kagawa-ken",
    "neighborhood": "Furubabacho",
    "category": "food",
    "coordinates": {
      "lat": 34.3415,
      "lng": 134.0508
    },
    "short_description": "Refined izakaya offering kaiseki-style small plates and fresh local fish arrangements.",
    "estimated_duration": "2 hours",
    "rating": 4.1,
    "review_count": 180,
    "min_budget": "¥5000"
  },
  {
    "name": "Funachu",
    "region": "Shikoku",
    "city": "Takamatsu",
    "prefecture": "Kagawa-ken",
    "neighborhood": "Kawaramachi",
    "category": "food",
    "coordinates": {
      "lat": 34.3445,
      "lng": 134.051
    },
    "short_description": "A deep-cut local izakaya loved for its simple, hearty dishes and nostalgic atmosphere.",
    "estimated_duration": "1.5 hours",
    "rating": 3.9,
    "review_count": 120,
    "min_budget": "¥2500"
  },
  {
    "name": "Sanbue",
    "region": "Shikoku",
    "city": "Takamatsu",
    "prefecture": "Kagawa-ken",
    "neighborhood": "Ritsurin",
    "category": "food",
    "coordinates": {
      "lat": 34.332,
      "lng": 134.0445
    },
    "short_description": "Traditional Japanese sweets shop offering matcha and wagashi near the garden entrance.",
    "estimated_duration": "30 mins",
    "rating": 4.3,
    "review_count": 80,
    "min_budget": "¥1000"
  },
  {
    "name": "Tsuruya",
    "region": "Shikoku",
    "city": "Takamatsu",
    "prefecture": "Kagawa-ken",
    "neighborhood": "Kawaramachi",
    "category": "food",
    "coordinates": {
      "lat": 34.3432,
      "lng": 134.0518
    },
    "short_description": "Another strong contender for Honetsuki-dori, known for a slightly crispier skin texture.",
    "estimated_duration": "1 hour",
    "rating": 4.0,
    "review_count": 300,
    "min_budget": "¥2000"
  },
  {
    "name": "Godhand",
    "region": "Shikoku",
    "city": "Takamatsu",
    "prefecture": "Kagawa-ken",
    "neighborhood": "Uchimachi",
    "category": "food",
    "coordinates": {
      "lat": 34.3475,
      "lng": 134.0505
    },
    "short_description": "Late-night udon spot with a cult following, known for slightly irregular, chewy handmade noodles.",
    "estimated_duration": "30 mins",
    "rating": 3.8,
    "review_count": 400,
    "min_budget": "¥600"
  },
  {
    "name": "Steak House Yamashita",
    "region": "Shikoku",
    "city": "Takamatsu",
    "prefecture": "Kagawa-ken",
    "neighborhood": "Kawaramachi",
    "category": "food",
    "coordinates": {
      "lat": 34.3422,
      "lng": 134.0528
    },
    "short_description": "Old-school steakhouse serving premium Japanese beef in a quiet, dignified setting.",
    "estimated_duration": "2 hours",
    "rating": 4.5,
    "review_count": 100,
    "min_budget": "¥8000"
  },
  {
    "name": "Agura",
    "region": "Shikoku",
    "city": "Takamatsu",
    "prefecture": "Kagawa-ken",
    "neighborhood": "Kajiyamachi",
    "category": "food",
    "coordinates": {
      "lat": 34.3435,
      "lng": 134.0495
    },
    "short_description": "Modern dining bar with private rooms, good for groups wanting a mix of Japanese and Western food.",
    "estimated_duration": "2 hours",
    "rating": 3.9,
    "review_count": 150,
    "min_budget": "¥3500"
  },
  {
    "name": "Udon Market",
    "region": "Shikoku",
    "city": "Takamatsu",
    "prefecture": "Kagawa-ken",
    "neighborhood": "Hyogomachi",
    "category": "food",
    "coordinates": {
      "lat": 34.347,
      "lng": 134.049
    },
    "short_description": "Convenient downtown udon shop that is approachable for tourists and offers solid quality.",
    "estimated_duration": "30 mins",
    "rating": 3.7,
    "review_count": 500,
    "min_budget": "¥500"
  },
  {
    "name": "Cafe Asu",
    "region": "Shikoku",
    "city": "Takamatsu",
    "prefecture": "Kagawa-ken",
    "neighborhood": "Yashima",
    "category": "food",
    "coordinates": {
      "lat": 34.355,
      "lng": 134.102
    },
    "short_description": "Charming cafe with a view of Yashima mountain, serving homemade cakes and light lunches.",
    "estimated_duration": "1 hour",
    "rating": 4.1,
    "review_count": 90,
    "min_budget": "¥1200"
  },
  {
    "name": "Sushikatsu",
    "region": "Shikoku",
    "city": "Takamatsu",
    "prefecture": "Kagawa-ken",
    "neighborhood": "Kawaramachi",
    "category": "food",
    "coordinates": {
      "lat": 34.3448,
      "lng": 134.0515
    },
    "short_description": "Mid-range sushi restaurant known for generous toppings and fresh Setouchi octopus.",
    "estimated_duration": "1 hour",
    "rating": 4.0,
    "review_count": 150,
    "min_budget": "¥2500"
  },
  {
    "name": "Menya Kiseki",
    "region": "Shikoku",
    "city": "Takamatsu",
    "prefecture": "Kagawa-ken",
    "neighborhood": "Kawaramachi",
    "category": "food",
    "coordinates": {
      "lat": 34.3412,
      "lng": 134.0505
    },
    "short_description": "Ramen shop specializing in rich chicken white soup (tori-paitan) ramen.",
    "estimated_duration": "45 mins",
    "rating": 4.1,
    "review_count": 250,
    "min_budget": "¥950"
  },
  {
    "name": "Takamatsu Central Wholesale Market",
    "region": "Shikoku",
    "city": "Takamatsu",
    "prefecture": "Kagawa-ken",
    "neighborhood": "Setouchicho",
    "category": "food",
    "coordinates": {
      "lat": 34.353,
      "lng": 134.032
    },
    "short_description": "Area containing several fresh sushi and seafood bowl restaurants directly at the port market.",
    "estimated_duration": "1 hour",
    "rating": 4.2,
    "review_count": 800,
    "min_budget": "¥1500"
  },
  {
    "name": "Lantana",
    "region": "Shikoku",
    "city": "Takamatsu",
    "prefecture": "Kagawa-ken",
    "neighborhood": "Sunport",
    "category": "food",
    "coordinates": {
      "lat": 34.354,
      "lng": 134.048
    },
    "short_description": "Cafe with harbor views, perfect for a break while waiting for ferries to Naoshima.",
    "estimated_duration": "45 mins",
    "rating": 3.8,
    "review_count": 100,
    "min_budget": "¥1000"
  }
]
