[
  {
    "name": "Hida Kotte Ushi",
    "region": "Chubu",
    "city": "Takayama",
    "prefecture": "Gifu-ken",
    "neighborhood": "Sanmachi Suji",
    "category": "food",
    "coordinates": {
      "lat": 36.1405,
      "lng": 137.2592
    },
    "short_description": "Famous street food spot serving Grade A5 Hida beef sushi on a senbei cracker.",
    "estimated_duration": "15 mins",
    "rating": 4.5,
    "review_count": 2500,
    "min_budget": "¥1000"
  },
  {
    "name": "Menya Shirakawa",
    "region": "Chubu",
    "city": "Takayama",
    "prefecture": "Gifu-ken",
    "neighborhood": "Tenmancho",
    "category": "food",
    "coordinates": {
      "lat": 36.1458,
      "lng": 137.2535
    },
    "short_description": "Legendary Takayama ramen shop known for its rich soy sauce broth and long queues.",
    "estimated_duration": "1 hour",
    "rating": 4.2,
    "review_count": 1800,
    "min_budget": "¥1000"
  },
  {
    "name": "Ajikura Tengoku",
    "region": "Chubu",
    "city": "Takayama",
    "prefecture": "Gifu-ken",
    "neighborhood": "Takayama Station",
    "category": "food",
    "coordinates": {
      "lat": 36.141,
      "lng": 137.2515
    },
    "short_description": "JA (Japan Agriculture) managed yakiniku restaurant offering high-quality Hida beef at good prices.",
    "estimated_duration": "1.5 hours",
    "rating": 4.4,
    "review_count": 3000,
    "min_budget": "¥3000"
  },
  {
    "name": "Miyagawa Morning Market",
    "region": "Chubu",
    "city": "Takayama",
    "prefecture": "Gifu-ken",
    "neighborhood": "Miyagawa River",
    "category": "food",
    "coordinates": {
      "lat": 36.1435,
      "lng": 137.259
    },
    "short_description": "Daily market along the river selling local apples, Hida beef snacks, and the famous custard pudding.",
    "estimated_duration": "1 hour",
    "rating": 4.2,
    "review_count": 4000,
    "min_budget": "¥500"
  },
  {
    "name": "Center4 Hamburgers",
    "region": "Chubu",
    "city": "Takayama",
    "prefecture": "Gifu-ken",
    "neighborhood": "Kami-Sannomachi",
    "category": "food",
    "coordinates": {
      "lat": 36.1395,
      "lng": 137.2595
    },
    "short_description": "Hidden gem famous for its Hida Beef Burger, often cited as one of the best burgers in Japan.",
    "estimated_duration": "1 hour",
    "rating": 4.6,
    "review_count": 2200,
    "min_budget": "¥2500"
  },
  {
    "name": "Heianraku",
    "region": "Chubu",
    "city": "Takayama",
    "prefecture": "Gifu-ken",
    "neighborhood": "Tenmancho",
    "category": "food",
    "coordinates": {
      "lat": 36.1442,
      "lng": 137.2555
    },
    "short_description": "Family-run Chinese restaurant beloved by travelers for its hospitality and vegetarian options.",
    "estimated_duration": "1 hour",
    "rating": 4.8,
    "review_count": 1500,
    "min_budget": "¥1500"
  },
  {
    "name": "Kyoya",
    "region": "Chubu",
    "city": "Takayama",
    "prefecture": "Gifu-ken",
    "neighborhood": "Oshinmachi",
    "category": "food",
    "coordinates": {
      "lat": 36.1485,
      "lng": 137.2575
    },
    "short_description": "Traditional dining with 'irori' (sunken hearths), serving Hoba Miso and local beef.",
    "estimated_duration": "1.5 hours",
    "rating": 4.3,
    "review_count": 1200,
    "min_budget": "¥2500"
  },
  {
    "name": "Maruaki Takayama",
    "region": "Chubu",
    "city": "Takayama",
    "prefecture": "Gifu-ken",
    "neighborhood": "Tenmancho",
    "category": "food",
    "coordinates": {
      "lat": 36.1448,
      "lng": 137.2548
    },
    "short_description": "Butcher-run restaurant famous for its large platters of premium Hida beef for yakiniku.",
    "estimated_duration": "1.5 hours",
    "rating": 4.2,
    "review_count": 3500,
    "min_budget": "¥3500"
  },
  {
    "name": "Suzuya",
    "region": "Chubu",
    "city": "Takayama",
    "prefecture": "Gifu-ken",
    "neighborhood": "Hanakawacho",
    "category": "food",
    "coordinates": {
      "lat": 36.1432,
      "lng": 137.2558
    },
    "short_description": "Specializes in 'Hoba Miso Steak', where beef is grilled on a magnolia leaf with miso.",
    "estimated_duration": "1 hour",
    "rating": 4.1,
    "review_count": 800,
    "min_budget": "¥2000"
  },
  {
    "name": "Tsuzumi Soba",
    "region": "Chubu",
    "city": "Takayama",
    "prefecture": "Gifu-ken",
    "neighborhood": "Honmachi",
    "category": "food",
    "coordinates": {
      "lat": 36.1425,
      "lng": 137.255
    },
    "short_description": "One of the oldest Takayama ramen shops, known for a clear, light soy broth and curly noodles.",
    "estimated_duration": "45 mins",
    "rating": 4.0,
    "review_count": 1000,
    "min_budget": "¥900"
  },
  {
    "name": "Restaurant Le Midi",
    "region": "Chubu",
    "city": "Takayama",
    "prefecture": "Gifu-ken",
    "neighborhood": "Honmachi",
    "category": "food",
    "coordinates": {
      "lat": 36.1415,
      "lng": 137.2565
    },
    "short_description": "French-style bistro famous for its Hida beef steaks and rich pumpkin pudding.",
    "estimated_duration": "1.5 hours",
    "rating": 4.2,
    "review_count": 1200,
    "min_budget": "¥4000"
  },
  {
    "name": "Chitose",
    "region": "Chubu",
    "city": "Takayama",
    "prefecture": "Gifu-ken",
    "neighborhood": "Hanakawacho",
    "category": "food",
    "coordinates": {
      "lat": 36.142,
      "lng": 137.2538
    },
    "short_description": "Local soul food spot specializing in Yakisoba (fried noodles) served on a sizzling iron plate.",
    "estimated_duration": "45 mins",
    "rating": 4.0,
    "review_count": 900,
    "min_budget": "¥800"
  },
  {
    "name": "Kihachiro",
    "region": "Chubu",
    "city": "Takayama",
    "prefecture": "Gifu-ken",
    "neighborhood": "Kami-Sannomachi",
    "category": "food",
    "coordinates": {
      "lat": 36.1402,
      "lng": 137.2588
    },
    "short_description": "Popular shop for steaming hot Hida beef buns (Gyu-man), perfect for walking and eating.",
    "estimated_duration": "15 mins",
    "rating": 4.1,
    "review_count": 800,
    "min_budget": "¥500"
  },
  {
    "name": "Dekonaru Yokocho",
    "region": "Chubu",
    "city": "Takayama",
    "prefecture": "Gifu-ken",
    "neighborhood": "Asahimachi",
    "category": "food",
    "coordinates": {
      "lat": 36.1438,
      "lng": 137.2562
    },
    "short_description": "A food stall village (yatai-mura) offering sushi, gyoza, and izakaya dishes in a lively atmosphere.",
    "estimated_duration": "2 hours",
    "rating": 4.1,
    "review_count": 500,
    "min_budget": "¥2500"
  },
  {
    "name": "Sakaguchiya",
    "region": "Chubu",
    "city": "Takayama",
    "prefecture": "Gifu-ken",
    "neighborhood": "Kami-Sannomachi",
    "category": "food",
    "coordinates": {
      "lat": 36.1398,
      "lng": 137.259
    },
    "short_description": "Historic restaurant in the old town offering Hida beef sushi on a cracker and regional noodles.",
    "estimated_duration": "1 hour",
    "rating": 4.0,
    "review_count": 1000,
    "min_budget": "¥1500"
  },
  {
    "name": "Mame Tengu",
    "region": "Chubu",
    "city": "Takayama",
    "prefecture": "Gifu-ken",
    "neighborhood": "Hachikenmachi",
    "category": "food",
    "coordinates": {
      "lat": 36.136,
      "lng": 137.255
    },
    "short_description": "A classic Takayama ramen shop established in 1948, known for its consistent, savory flavor.",
    "estimated_duration": "45 mins",
    "rating": 3.9,
    "review_count": 600,
    "min_budget": "¥900"
  },
  {
    "name": "Hida Takayama Gyoza Sohonten",
    "region": "Chubu",
    "city": "Takayama",
    "prefecture": "Gifu-ken",
    "neighborhood": "Asahimachi",
    "category": "food",
    "coordinates": {
      "lat": 36.143,
      "lng": 137.256
    },
    "short_description": "Specialty shop serving dumplings made with Hida pork and local ingredients.",
    "estimated_duration": "45 mins",
    "rating": 4.2,
    "review_count": 500,
    "min_budget": "¥1500"
  },
  {
    "name": "Cafe Ao",
    "region": "Chubu",
    "city": "Takayama",
    "prefecture": "Gifu-ken",
    "neighborhood": "Kami-Sannomachi",
    "category": "food",
    "coordinates": {
      "lat": 36.139,
      "lng": 137.2598
    },
    "short_description": "Relaxing cafe with tatami seating and views of the garden/river, serving matcha and sweets.",
    "estimated_duration": "1 hour",
    "rating": 4.3,
    "review_count": 300,
    "min_budget": "¥1000"
  },
  {
    "name": "Yamatake Shoten",
    "region": "Chubu",
    "city": "Takayama",
    "prefecture": "Gifu-ken",
    "neighborhood": "Sowa-machi",
    "category": "food",
    "coordinates": {
      "lat": 36.1445,
      "lng": 137.257
    },
    "short_description": "Butcher shop where you can choose your steak and grill it yourself on the spot.",
    "estimated_duration": "1 hour",
    "rating": 4.5,
    "review_count": 400,
    "min_budget": "¥2000"
  }
]
