[
  {
    "name": "Chuka Soba Inotani Honten",
    "region": "Shikoku",
    "city": "Tokushima",
    "prefecture": "Tokushima-ken",
    "neighborhood": "Nishidaikumachi",
    "category": "food",
    "coordinates": {
      "lat": 34.0705,
      "lng": 134.5468
    },
    "short_description": "The birthplace of 'Tokushima Ramen', famous for its rich brown pork bone soy sauce broth and raw egg topping.",
    "estimated_duration": "45 mins",
    "rating": 4.1,
    "review_count": 3200,
    "min_budget": "¥800"
  },
  {
    "name": "Ramen Todai Omichi Honten",
    "region": "Shikoku",
    "city": "Tokushima",
    "prefecture": "Tokushima-ken",
    "neighborhood": "Omichi",
    "category": "food",
    "coordinates": {
      "lat": 34.0628,
      "lng": 134.5482
    },
    "short_description": "Famous late-night ramen spot known for unlimited free raw eggs to crack into your sweet-savory soup.",
    "estimated_duration": "45 mins",
    "rating": 4.0,
    "review_count": 2100,
    "min_budget": "¥900"
  },
  {
    "name": "Binbi-ya",
    "region": "Shikoku",
    "city": "Naruto",
    "prefecture": "Tokushima-ken",
    "neighborhood": "Kitanada",
    "category": "food",
    "coordinates": {
      "lat": 34.2265,
      "lng": 134.568
    },
    "short_description": "Legendary roadside seafood cafeteria famous for massive portions of fresh sashimi and wakame soup.",
    "estimated_duration": "1-1.5 hours",
    "rating": 4.3,
    "review_count": 4500,
    "min_budget": "¥2000"
  },
  {
    "name": "Ikkaku",
    "region": "Shikoku",
    "city": "Tokushima",
    "prefecture": "Tokushima-ken",
    "neighborhood": "Ryogokubashi",
    "category": "food",
    "coordinates": {
      "lat": 34.072,
      "lng": 134.5515
    },
    "short_description": "Popular izakaya specializing in Awa Odori chicken, grilled on the bone with spicy seasoning.",
    "estimated_duration": "1.5 hours",
    "rating": 4.0,
    "review_count": 800,
    "min_budget": "¥2500"
  },
  {
    "name": "Ousho",
    "region": "Shikoku",
    "city": "Tokushima",
    "prefecture": "Tokushima-ken",
    "neighborhood": "Kokufucho",
    "category": "food",
    "coordinates": {
      "lat": 34.0765,
      "lng": 134.498
    },
    "short_description": "Highly regarded for 'White Tokushima Ramen' which uses a creamy, lighter pork bone broth.",
    "estimated_duration": "45 mins",
    "rating": 4.2,
    "review_count": 950,
    "min_budget": "¥800"
  },
  {
    "name": "Kapoue",
    "region": "Shikoku",
    "city": "Tokushima",
    "prefecture": "Tokushima-ken",
    "neighborhood": "Ichibancho",
    "category": "food",
    "coordinates": {
      "lat": 34.0735,
      "lng": 134.5508
    },
    "short_description": "Casual standing bar famous for grilled Awa Odori chicken skewers and cheap drinks.",
    "estimated_duration": "1 hour",
    "rating": 4.0,
    "review_count": 400,
    "min_budget": "¥1500"
  },
  {
    "name": "Chuuka Soba Tasya",
    "region": "Shikoku",
    "city": "Tokushima",
    "prefecture": "Tokushima-ken",
    "neighborhood": "Minamishomachi",
    "category": "food",
    "coordinates": {
      "lat": 34.0802,
      "lng": 134.535
    },
    "short_description": "Local favorite offering a balanced, slightly milder version of the classic brown Tokushima ramen.",
    "estimated_duration": "45 mins",
    "rating": 4.1,
    "review_count": 600,
    "min_budget": "¥800"
  },
  {
    "name": "Resort Hotel Moana Coast (Fishbone)",
    "region": "Shikoku",
    "city": "Naruto",
    "prefecture": "Tokushima-ken",
    "neighborhood": "Narutocho",
    "category": "food",
    "coordinates": {
      "lat": 34.205,
      "lng": 134.615
    },
    "short_description": "Upscale Italian restaurant using local Naruto seafood and vegetables, famous for sea bream dishes.",
    "estimated_duration": "2 hours",
    "rating": 4.4,
    "review_count": 350,
    "min_budget": "¥4000"
  },
  {
    "name": "Domannaka",
    "region": "Shikoku",
    "city": "Tokushima",
    "prefecture": "Tokushima-ken",
    "neighborhood": "Akitamachi",
    "category": "food",
    "coordinates": {
      "lat": 34.0685,
      "lng": 134.552
    },
    "short_description": "Lively izakaya in the entertainment district serving fresh local seafood and sudachi citrus cocktails.",
    "estimated_duration": "2 hours",
    "rating": 3.9,
    "review_count": 250,
    "min_budget": "¥3500"
  },
  {
    "name": "Wada no Yaukun",
    "region": "Shikoku",
    "city": "Tokushima",
    "prefecture": "Tokushima-ken",
    "neighborhood": "Wadano",
    "category": "food",
    "coordinates": {
      "lat": 34.055,
      "lng": 134.56
    },
    "short_description": "Hidden gem udon shop in a residential area, beloved for its chewy noodles and tempura.",
    "estimated_duration": "45 mins",
    "rating": 4.3,
    "review_count": 200,
    "min_budget": "¥600"
  },
  {
    "name": "Torigian",
    "region": "Shikoku",
    "city": "Tokushima",
    "prefecture": "Tokushima-ken",
    "neighborhood": "Yaoya-machi",
    "category": "food",
    "coordinates": {
      "lat": 34.074,
      "lng": 134.549
    },
    "short_description": "Specialty restaurant for Awa Odori chicken, offering yakitori, hot pots, and tataki (seared raw chicken).",
    "estimated_duration": "2 hours",
    "rating": 4.2,
    "review_count": 300,
    "min_budget": "¥4000"
  },
  {
    "name": "Men O",
    "region": "Shikoku",
    "city": "Tokushima",
    "prefecture": "Tokushima-ken",
    "neighborhood": "Tokushima Station",
    "category": "food",
    "coordinates": {
      "lat": 34.075,
      "lng": 134.5518
    },
    "short_description": "Convenient station-front ramen shop serving excellent classic Tokushima-style noodles.",
    "estimated_duration": "30 mins",
    "rating": 3.8,
    "review_count": 800,
    "min_budget": "¥850"
  },
  {
    "name": "Soba-dokoro Hashikura",
    "region": "Shikoku",
    "city": "Miyoshi (Iya Valley)",
    "prefecture": "Tokushima-ken",
    "neighborhood": "Ikeda",
    "category": "food",
    "coordinates": {
      "lat": 34.032,
      "lng": 133.805
    },
    "short_description": "Authentic Iya Soba (buckwheat noodles) shop, known for its rustic texture and hearty broth.",
    "estimated_duration": "1 hour",
    "rating": 4.1,
    "review_count": 400,
    "min_budget": "¥1000"
  },
  {
    "name": "Cafe Role",
    "region": "Shikoku",
    "city": "Tokushima",
    "prefecture": "Tokushima-ken",
    "neighborhood": "Nakashimada",
    "category": "food",
    "coordinates": {
      "lat": 34.085,
      "lng": 134.53
    },
    "short_description": "Charming cafe famous for pancakes and sweets made with Naruto Kintoki sweet potatoes.",
    "estimated_duration": "1 hour",
    "rating": 4.2,
    "review_count": 150,
    "min_budget": "¥1200"
  },
  {
    "name": "Sakana Daisho",
    "region": "Shikoku",
    "city": "Naruto",
    "prefecture": "Tokushima-ken",
    "neighborhood": "Seto",
    "category": "food",
    "coordinates": {
      "lat": 34.215,
      "lng": 134.58
    },
    "short_description": "Large seafood restaurant popular with groups, serving fresh Kaisendon and tempura sets.",
    "estimated_duration": "1 hour",
    "rating": 3.9,
    "review_count": 1200,
    "min_budget": "¥1500"
  },
  {
    "name": "Awa Kemuri",
    "region": "Shikoku",
    "city": "Tokushima",
    "prefecture": "Tokushima-ken",
    "neighborhood": "Akitamachi",
    "category": "food",
    "coordinates": {
      "lat": 34.0675,
      "lng": 134.551
    },
    "short_description": "Modern izakaya focusing on smoked dishes and local Awa beef and chicken.",
    "estimated_duration": "2 hours",
    "rating": 4.0,
    "review_count": 100,
    "min_budget": "¥3500"
  },
  {
    "name": "French Monster",
    "region": "Shikoku",
    "city": "Naruto",
    "prefecture": "Tokushima-ken",
    "neighborhood": "Shimadajima",
    "category": "food",
    "coordinates": {
      "lat": 34.235,
      "lng": 134.64
    },
    "short_description": "Cafe with a stunning view of the Naruto straits, famous for their 'Moon Cheese' sable cookies.",
    "estimated_duration": "1 hour",
    "rating": 4.3,
    "review_count": 250,
    "min_budget": "¥1000"
  },
  {
    "name": "Takashima Coffee",
    "region": "Shikoku",
    "city": "Tokushima",
    "prefecture": "Tokushima-ken",
    "neighborhood": "Kami-suketo",
    "category": "food",
    "coordinates": {
      "lat": 34.081,
      "lng": 134.555
    },
    "short_description": "Retro kissaten famous for its thick, fluffy burgers that sell out by lunchtime.",
    "estimated_duration": "1 hour",
    "rating": 4.4,
    "review_count": 300,
    "min_budget": "¥1000"
  },
  {
    "name": "Hachiman",
    "region": "Shikoku",
    "city": "Tokushima",
    "prefecture": "Tokushima-ken",
    "neighborhood": "Yamashiro",
    "category": "food",
    "coordinates": {
      "lat": 34.058,
      "lng": 134.565
    },
    "short_description": "Highly acclaimed ramen shop with a milder, more balanced pork and soy sauce soup.",
    "estimated_duration": "45 mins",
    "rating": 4.1,
    "review_count": 500,
    "min_budget": "¥800"
  },
  {
    "name": "Kappo Hamai",
    "region": "Shikoku",
    "city": "Tokushima",
    "prefecture": "Tokushima-ken",
    "neighborhood": "Tomidamachi",
    "category": "food",
    "coordinates": {
      "lat": 34.07,
      "lng": 134.55
    },
    "short_description": "Traditional kappo restaurant perfect for trying authentic Tokushima kaiseki cuisine.",
    "estimated_duration": "2 hours",
    "rating": 4.3,
    "review_count": 150,
    "min_budget": "¥6000"
  },
  {
    "name": "Agnes Pastry Boutique",
    "region": "Shikoku",
    "city": "Tokushima",
    "prefecture": "Tokushima-ken",
    "neighborhood": "Terashimahoncho",
    "category": "food",
    "coordinates": {
      "lat": 34.0745,
      "lng": 134.553
    },
    "short_description": "Hotel pastry shop known for high-quality cakes and treats using local citrus and sugar.",
    "estimated_duration": "30 mins",
    "rating": 4.0,
    "review_count": 200,
    "min_budget": "¥800"
  },
  {
    "name": "Arata",
    "region": "Shikoku",
    "city": "Tokushima",
    "prefecture": "Tokushima-ken",
    "neighborhood": "Suehiro",
    "category": "food",
    "coordinates": {
      "lat": 34.065,
      "lng": 134.575
    },
    "short_description": "Popular Udon shop known for its 'Kama-tama' udon and freshly fried tempura.",
    "estimated_duration": "45 mins",
    "rating": 4.1,
    "review_count": 350,
    "min_budget": "¥700"
  },
  {
    "name": "Isaribi",
    "region": "Shikoku",
    "city": "Tokushima",
    "prefecture": "Tokushima-ken",
    "neighborhood": "Akitamachi",
    "category": "food",
    "coordinates": {
      "lat": 34.069,
      "lng": 134.5515
    },
    "short_description": "Robatayaki restaurant grilling fresh seafood and vegetables over charcoal in front of diners.",
    "estimated_duration": "2 hours",
    "rating": 4.0,
    "review_count": 180,
    "min_budget": "¥4000"
  },
  {
    "name": "Kuramoto Coffee",
    "region": "Shikoku",
    "city": "Tokushima",
    "prefecture": "Tokushima-ken",
    "neighborhood": "Kuramoto",
    "category": "food",
    "coordinates": {
      "lat": 34.078,
      "lng": 134.515
    },
    "short_description": "Relaxed coffee house known for its morning sets and hand-drip coffee.",
    "estimated_duration": "1 hour",
    "rating": 4.2,
    "review_count": 100,
    "min_budget": "¥600"
  },
  {
    "name": "Sushiroku",
    "region": "Shikoku",
    "city": "Tokushima",
    "prefecture": "Tokushima-ken",
    "neighborhood": "Ichibancho",
    "category": "food",
    "coordinates": {
      "lat": 34.073,
      "lng": 134.5495
    },
    "short_description": "Long-standing sushi counter offering high-quality Setouchi seafood at fair prices.",
    "estimated_duration": "1.5 hours",
    "rating": 4.1,
    "review_count": 120,
    "min_budget": "¥5000"
  },
  {
    "name": "Mamebon",
    "region": "Shikoku",
    "city": "Tokushima",
    "prefecture": "Tokushima-ken",
    "neighborhood": "Sumiyoshi",
    "category": "food",
    "coordinates": {
      "lat": 34.0795,
      "lng": 134.568
    },
    "short_description": "Cute cafe specializing in sweets made from Wasanbon, Tokushima's famous fine sugar.",
    "estimated_duration": "45 mins",
    "rating": 4.2,
    "review_count": 80,
    "min_budget": "¥1000"
  },
  {
    "name": "Ganshu",
    "region": "Shikoku",
    "city": "Tokushima",
    "prefecture": "Tokushima-ken",
    "neighborhood": "Akitamachi",
    "category": "food",
    "coordinates": {
      "lat": 34.068,
      "lng": 134.5525
    },
    "short_description": "Authentic yakitori bar using premium Awa Odori chicken, known for rare cuts.",
    "estimated_duration": "2 hours",
    "rating": 4.3,
    "review_count": 200,
    "min_budget": "¥3500"
  },
  {
    "name": "Namidame",
    "region": "Shikoku",
    "city": "Tokushima",
    "prefecture": "Tokushima-ken",
    "neighborhood": "Showacho",
    "category": "food",
    "coordinates": {
      "lat": 34.06,
      "lng": 134.555
    },
    "short_description": "Modern udon spot with creative toppings and excellent tempura.",
    "estimated_duration": "45 mins",
    "rating": 4.0,
    "review_count": 150,
    "min_budget": "¥800"
  },
  {
    "name": "Cafe Contigo",
    "region": "Shikoku",
    "city": "Tokushima",
    "prefecture": "Tokushima-ken",
    "neighborhood": "Tokushima Station",
    "category": "food",
    "coordinates": {
      "lat": 34.0742,
      "lng": 134.5512
    },
    "short_description": "Convenient cafe for breakfast or light lunch near the bus terminal.",
    "estimated_duration": "45 mins",
    "rating": 3.8,
    "review_count": 100,
    "min_budget": "¥900"
  },
  {
    "name": "Awaan",
    "region": "Shikoku",
    "city": "Tokushima",
    "prefecture": "Tokushima-ken",
    "neighborhood": "Sako",
    "category": "food",
    "coordinates": {
      "lat": 34.076,
      "lng": 134.538
    },
    "short_description": "Soba restaurant using local buckwheat flour, located in a quiet traditional house.",
    "estimated_duration": "1 hour",
    "rating": 4.1,
    "review_count": 90,
    "min_budget": "¥1200"
  },
  {
    "name": "Naruto Udon",
    "region": "Shikoku",
    "city": "Naruto",
    "prefecture": "Tokushima-ken",
    "neighborhood": "Muyacho",
    "category": "food",
    "coordinates": {
      "lat": 34.185,
      "lng": 134.605
    },
    "short_description": "Distinctive local udon style with thin, uneven noodles and a simple golden broth.",
    "estimated_duration": "30 mins",
    "rating": 3.9,
    "review_count": 400,
    "min_budget": "¥500"
  },
  {
    "name": "California Table",
    "region": "Shikoku",
    "city": "Naruto",
    "prefecture": "Tokushima-ken",
    "neighborhood": "Naruto Park",
    "category": "food",
    "coordinates": {
      "lat": 34.238,
      "lng": 134.645
    },
    "short_description": "Restaurant with panoramic views of the Naruto whirlpools, serving Western-style lunches.",
    "estimated_duration": "1.5 hours",
    "rating": 4.2,
    "review_count": 300,
    "min_budget": "¥2500"
  },
  {
    "name": "Shokudo Haretoke",
    "region": "Shikoku",
    "city": "Miyoshi (Iya Valley)",
    "prefecture": "Tokushima-ken",
    "neighborhood": "Nishi-Iya",
    "category": "food",
    "coordinates": {
      "lat": 33.876,
      "lng": 133.834
    },
    "short_description": "Stylish cafe in a renovated schoolhouse in the Iya Valley, serving local game meat curries.",
    "estimated_duration": "1 hour",
    "rating": 4.3,
    "review_count": 150,
    "min_budget": "¥1200"
  },
  {
    "name": "Kintoki Kitchen",
    "region": "Shikoku",
    "city": "Tokushima",
    "prefecture": "Tokushima-ken",
    "neighborhood": "Shinmachi",
    "category": "food",
    "coordinates": {
      "lat": 34.071,
      "lng": 134.548
    },
    "short_description": "Specialty shop for fried Naruto Kintoki sweet potatoes, perfect for a walking snack.",
    "estimated_duration": "15 mins",
    "rating": 4.1,
    "review_count": 100,
    "min_budget": "¥500"
  },
  {
    "name": "Ramen Kinto",
    "region": "Shikoku",
    "city": "Tokushima",
    "prefecture": "Tokushima-ken",
    "neighborhood": "Minami-showacho",
    "category": "food",
    "coordinates": {
      "lat": 34.0585,
      "lng": 134.558
    },
    "short_description": "Modern ramen shop gaining popularity for its refined golden soup and clean taste.",
    "estimated_duration": "45 mins",
    "rating": 4.0,
    "review_count": 200,
    "min_budget": "¥900"
  },
  {
    "name": "Tototo",
    "region": "Shikoku",
    "city": "Tokushima",
    "prefecture": "Tokushima-ken",
    "neighborhood": "Akitamachi",
    "category": "food",
    "coordinates": {
      "lat": 34.0695,
      "lng": 134.5518
    },
    "short_description": "Popular izakaya known for its extensive sake list and fresh local sashimi platters.",
    "estimated_duration": "2 hours",
    "rating": 4.0,
    "review_count": 180,
    "min_budget": "¥4000"
  },
  {
    "name": "Cafe Limone",
    "region": "Shikoku",
    "city": "Tokushima",
    "prefecture": "Tokushima-ken",
    "neighborhood": "Tokushima Station",
    "category": "food",
    "coordinates": {
      "lat": 34.0748,
      "lng": 134.5525
    },
    "short_description": "Cozy cafe offering sudachi citrus drinks and light pasta meals.",
    "estimated_duration": "45 mins",
    "rating": 3.9,
    "review_count": 80,
    "min_budget": "¥1000"
  },
  {
    "name": "Yakiniku Ten-zan-kaku",
    "region": "Shikoku",
    "city": "Tokushima",
    "prefecture": "Tokushima-ken",
    "neighborhood": "Kawasumi",
    "category": "food",
    "coordinates": {
      "lat": 34.085,
      "lng": 134.56
    },
    "short_description": "Family-friendly Yakiniku restaurant offering Awa beef courses.",
    "estimated_duration": "1.5 hours",
    "rating": 3.8,
    "review_count": 200,
    "min_budget": "¥3000"
  },
  {
    "name": "Wanko Soba",
    "region": "Shikoku",
    "city": "Tokushima",
    "prefecture": "Tokushima-ken",
    "neighborhood": "Ryogoku",
    "category": "food",
    "coordinates": {
      "lat": 34.0715,
      "lng": 134.5505
    },
    "short_description": "Small noodle shop open late, catering to the after-party crowd with simple, hot soba.",
    "estimated_duration": "30 mins",
    "rating": 3.7,
    "review_count": 100,
    "min_budget": "¥700"
  },
  {
    "name": "Tokushima Marche",
    "region": "Shikoku",
    "city": "Tokushima",
    "prefecture": "Tokushima-ken",
    "neighborhood": "Shinmachi Boardwalk",
    "category": "food",
    "coordinates": {
      "lat": 34.0725,
      "lng": 134.549
    },
    "short_description": "Monthly Sunday market featuring local farmers, food trucks, and artisanal Tokushima products.",
    "estimated_duration": "1 hour",
    "rating": 4.4,
    "review_count": 300,
    "min_budget": "¥1000"
  },
  {
    "name": "Kashin",
    "region": "Shikoku",
    "city": "Tokushima",
    "prefecture": "Tokushima-ken",
    "neighborhood": "Nishidaikumachi",
    "category": "food",
    "coordinates": {
      "lat": 34.0702,
      "lng": 134.545
    },
    "short_description": "Long-established Chinese restaurant popular with locals for its affordable lunch sets.",
    "estimated_duration": "45 mins",
    "rating": 3.9,
    "review_count": 150,
    "min_budget": "¥900"
  },
  {
    "name": "Fukumo",
    "region": "Shikoku",
    "city": "Tokushima",
    "prefecture": "Tokushima-ken",
    "neighborhood": "Akitamachi",
    "category": "food",
    "coordinates": {
      "lat": 34.0688,
      "lng": 134.5522
    },
    "short_description": "Okonomiyaki shop with a retro vibe, also serving Tokushima's local 'Mame-ten' (bean tempura).",
    "estimated_duration": "1 hour",
    "rating": 4.0,
    "review_count": 120,
    "min_budget": "¥1500"
  },
  {
    "name": "Iya Onsen Hotel Restaurant",
    "region": "Shikoku",
    "city": "Miyoshi (Iya Valley)",
    "prefecture": "Tokushima-ken",
    "neighborhood": "Iya",
    "category": "food",
    "coordinates": {
      "lat": 33.921,
      "lng": 133.818
    },
    "short_description": "Dining with breathtaking views of the gorge, serving river fish (Ameago) and wild vegetables.",
    "estimated_duration": "1.5 hours",
    "rating": 4.3,
    "review_count": 350,
    "min_budget": "¥3000"
  },
  {
    "name": "Ramen Sanpa",
    "region": "Shikoku",
    "city": "Tokushima",
    "prefecture": "Tokushima-ken",
    "neighborhood": "Minamishomachi",
    "category": "food",
    "coordinates": {
      "lat": 34.081,
      "lng": 134.534
    },
    "short_description": "Rising star in the ramen scene offering diverse broth types beyond the standard Tokushima style.",
    "estimated_duration": "45 mins",
    "rating": 4.0,
    "review_count": 150,
    "min_budget": "¥900"
  },
  {
    "name": "Uotaisyo",
    "region": "Shikoku",
    "city": "Naruto",
    "prefecture": "Tokushima-ken",
    "neighborhood": "Seto",
    "category": "food",
    "coordinates": {
      "lat": 34.216,
      "lng": 134.581
    },
    "short_description": "No-frills seafood diner next to Binbi-ya, often less crowded but with excellent fresh fish.",
    "estimated_duration": "1 hour",
    "rating": 3.8,
    "review_count": 500,
    "min_budget": "¥1500"
  }
]
